State,District,Latitude,Longitude,District code,Population,Male,Female,Literate,Male_Literate,Female_Literate,Households_with_Internet,Households_with_Computer,Rural_Households,Urban_Households,Literacy rate,Male_Literate %,Female_Literate %,Sex Ratio
Andhra Pradesh,Adilabad,19.284513950073435,78.81321233480176,532,2741239,1369597,1371642,1483347,856350,626997,5512,45202,597466,220248,54.112282803506005,62.525691864103095,45.71141741066547,1001.0
Andhra Pradesh,Anantapur,14.312065561843148,77.4601584478577,553,4081148,2064495,2016653,2310960,1338474,972486,8606,48299,902997,341431,56.62524368143473,64.83299790021289,48.222773079949796,977.0
Andhra Pradesh,Chittoor,13.33109263067696,78.92763898886037,554,4174064,2090204,2083860,2667878,1484794,1183084,13763,67087,907970,395900,63.915598802509976,71.03584147767394,56.77367961379364,997.0
Andhra Pradesh,East Godavari,16.782718320784902,82.2432074720511,545,5154296,2569688,2584608,3288577,1716933,1571644,22411,93784,1199479,406362,63.80264152466215,66.81484289143273,60.80782849855761,1006.0
Andhra Pradesh,Guntur,15.884925767634847,80.58657614107885,548,4887813,2440521,2447292,2960441,1634726,1325715,19383,80434,1069877,513113,60.56780404651324,66.98266476707228,54.170691523528866,1003.0
Andhra Pradesh,Hyderabad,17.38971555555556,78.46668888888888,536,3943323,2018575,1924748,2892155,1542688,1349467,149034,274653,0,1066289,73.34309160066269,76.4246064674337,70.11136003258608,954.0
Andhra Pradesh,Karimnagar,18.515483193277312,79.43765428571413,534,3776269,1880800,1895469,2206829,1257238,949591,8831,46584,877236,288044,58.43940143035361,66.84591663122076,50.097944097212874,1008.0
Andhra Pradesh,Khammam,17.683921325051784,80.67008643892335,541,2797370,1390988,1406382,1630234,901640,728594,8628,42171,669262,201363,58.27738196949277,64.82011347330099,51.80626600738633,1011.0
Andhra Pradesh,Krishna,16.143872753151673,81.14805061000413,547,4517398,2267375,2250023,3009718,1598959,1410759,30438,101450,909292,567042,66.62503503122815,70.5202712387673,62.69975906912951,992.0
Andhra Pradesh,Kurnool,15.43759715142429,77.90086836581717,552,4053463,2039227,2014236,2127161,1246369,880792,10081,56478,783853,306982,52.47762222080231,61.119679172549205,43.7283416640354,988.0
Andhra Pradesh,Mahbubnagar,16.639546224256293,77.98933089244859,538,4053028,2050386,2002642,1940646,1158386,782260,6153,60812,848963,161052,47.881386459703705,56.49599636361153,39.061399890744326,977.0
Andhra Pradesh,Medak,17.889304978038055,78.13778901903379,535,3033288,1523030,1510258,1637137,953406,683731,8635,47170,593653,195479,53.972356070376435,62.59929220041628,45.27246338042904,992.0
Andhra Pradesh,Nalgonda,17.113250515463907,79.16984453608244,539,3488809,1759772,1729037,2001019,1160757,840262,7715,53777,833504,197433,57.35536109887357,65.96064717474763,48.59710925792797,983.0
Andhra Pradesh,Nizamabad,18.429485849056604,78.07523490566035,533,2551335,1250641,1300694,1389810,790214,599596,5261,35036,565165,155133,54.47383428675576,63.184718876160304,46.098159905404344,1040.0
Andhra Pradesh,Prakasam,15.489039001601704,80.11665790176184,549,3397448,1714764,1682684,1904435,1107686,796749,6151,43611,873486,214089,56.054868242280676,64.5969941053113,47.3498886303073,981.0
Andhra Pradesh,Srikakulam,18.570900998697432,84.25874814010675,542,2703114,1341738,1361376,1495381,857824,637557,3988,32280,752752,149684,55.32067829917643,63.93379333372089,46.831808405613145,1015.0
Andhra Pradesh,Vizianagaram,18.28329696032972,83.45982854198873,543,2344474,1161477,1182997,1238388,707503,530885,4453,24128,592458,157056,52.82157106455435,60.91407750648528,44.8762761021372,1019.0
Andhra Pradesh,Warangal,18.01752608695651,79.87422028985509,540,3512576,1759281,1753295,2065023,1179790,885233,12952,59006,758738,288249,58.78941836418628,67.06091863664759,50.4896780062682,997.0
Andhra Pradesh,West Godavari,16.63297943925236,81.45912990654196,546,3936966,1964918,1972048,2652389,1379223,1273166,12050,55613,1007255,248373,67.37139716218022,70.19239479713657,64.56059893065483,1004.0
Arunachal Pradesh,Changlang,27.36048479338845,96.37552644628106,253,148226,76948,71278,73174,44027,29147,170,1486,33422,6498,49.3665079000985,57.2165618339658,40.892000336709785,926.0
Arunachal Pradesh,East Kameng,27.371194055944056,93.04741486013997,247,78690,38775,39915,38449,21599,16850,57,885,14503,5215,48.861354682933026,55.70341715022566,42.21470625078291,1029.0
Arunachal Pradesh,East Siang,28.15382352941176,95.06499226006191,251,99214,50116,49098,62576,34210,28366,450,1582,19497,9524,63.07174390710988,68.26163301141352,57.77424742352031,980.0
Arunachal Pradesh,Kurung Kumey,28.04853351800553,93.24531994459834,256,92076,45318,46758,36606,20258,16348,95,969,18603,1092,39.756288283591815,44.7018844609206,34.963000983788874,1032.0
Arunachal Pradesh,Lohit,27.946785273972623,96.59670770547945,259,145726,76221,69505,83062,48380,34682,312,1471,33599,11372,56.998751080795465,63.473321000774064,49.89856844831307,912.0
Arunachal Pradesh,Lower Dibang Valley,28.32651730103806,95.76567335640142,258,54080,28053,26027,31849,18087,13762,207,742,12000,3950,58.89238165680474,64.47438776601433,52.87585968417413,928.0
Arunachal Pradesh,Lower Subansiri,27.70849297297297,93.96226108108112,255,83030,41843,41187,54057,29470,24587,381,1598,18112,5365,65.1053835962905,70.42994049183854,59.696020589020804,984.0
Arunachal Pradesh,Papum Pare,27.273529716981127,93.54468183962264,248,176573,89182,87391,121048,65794,55254,2477,7418,20308,30180,68.55408244748631,73.77497701329865,63.22619033996636,980.0
Arunachal Pradesh,Tawang,27.680683962264148,91.82504245283016,245,49977,29151,20826,26073,17720,8353,96,494,10730,2452,52.169998199171616,60.786936983293884,40.10851819840584,714.0
Arunachal Pradesh,Tirap,26.94406229508198,95.41470327868862,254,111975,57604,54371,47974,29313,18661,98,888,18420,6500,42.843491850859564,50.88709117422401,34.32160526751393,944.0
Arunachal Pradesh,Upper Siang,28.8309244897959,95.00155765306124,252,35320,18699,16621,18195,10723,7472,97,392,8569,2182,51.514722536806346,57.34531258356061,44.95517718548824,889.0
Arunachal Pradesh,Upper Subansiri,28.277196566523585,93.8991435622318,249,83448,41758,41690,45278,24807,20471,139,750,14542,4672,54.25893969897421,59.40658077494133,49.10290237467018,998.0
Arunachal Pradesh,West Kameng,27.46486582278483,92.65015750452083,246,83947,46155,37792,48492,29566,18926,202,887,17889,6306,57.76501840446948,64.05806521503628,50.079381879762906,819.0
Arunachal Pradesh,West Siang,28.106296920289843,94.53510344202908,250,112274,58168,54106,64746,36777,27969,303,1300,22272,8503,57.66784829969539,63.22548480264063,51.692973052896164,930.0
Assam,Barpeta,26.427872264631056,90.97912010178116,303,1693622,867004,826618,897058,499038,398020,2078,25286,447189,52192,52.9668367557814,57.55890399582931,48.15041530670757,953.0
Assam,Bongaigaon,26.45012521994133,90.6734296187684,319,738804,375818,362986,434078,237114,196964,2523,12959,181923,38470,58.75414859692151,63.09277362978889,54.26214785143229,966.0
Assam,Cachar,24.815570668693017,92.86849650455927,316,1736617,886284,850333,1174128,639946,534182,5316,37541,346227,88933,67.61007176596797,72.20552328598959,62.82033038821262,959.0
Assam,Darrang,26.58463215962442,92.04141338028155,325,928500,475273,453227,487039,268666,218373,1166,12084,268517,20189,52.4543887991384,56.52877398884431,48.18181617600011,954.0
Assam,Dhemaji,27.586533438485816,94.71336908517353,308,686133,351249,334884,423028,237761,185267,1192,10410,211758,16504,61.65393589872517,67.69015712500249,55.32273861994004,953.0
Assam,Dibrugarh,27.30612284482757,95.0998282327587,310,1326335,676434,649901,884531,491361,393170,8817,34479,299852,77163,66.68986342062902,72.63990278430713,60.49690645190575,961.0
Assam,Goalpara,26.017277777777807,90.59869891598912,302,1008183,513292,494891,563577,304302,259275,1364,13524,228610,39504,55.90026810608788,59.284383937407945,52.39032433404528,964.0
Assam,Golaghat,26.377219709794485,93.82583397823468,313,1066888,543161,523727,721764,396475,325289,3073,17636,292893,34190,67.6513373475004,72.99401098385194,62.11041248589437,964.0
Assam,Hailakandi,24.457496089385486,92.59154664804475,318,659296,337890,321406,407366,226836,180530,1211,10615,159215,16202,61.78802844245984,67.13309065080352,56.16883318917506,951.0
Assam,Jorhat,26.76244824016563,94.30197722567289,312,1092256,556805,535451,794929,432335,362594,5651,26357,286330,80824,72.7786343128351,77.64567487720117,67.71749422449487,962.0
Assam,Kamrup,26.170939452054807,91.58863273972592,321,1517542,778461,739081,995319,550219,445100,3109,23468,390596,43849,65.58757517090137,70.68035521368444,60.223439650051894,949.0
Assam,Karbi Anglong,26.08966454598031,93.11536570271832,314,956313,490167,466146,557214,314253,242961,1923,11340,215691,37185,58.26690633715113,64.1114150891431,52.12122382257919,951.0
Assam,Karimganj,24.69660712250711,92.3679498575498,317,1228686,625864,602822,795297,435942,359355,1933,24699,261945,32695,64.72744053403392,69.6544297163601,59.612124308668236,963.0
Assam,Kokrajhar,26.497246635730868,90.13997470997688,300,887142,452905,434237,489305,275220,214085,1218,14063,204896,17115,55.15520626912039,60.76771066780009,49.30141834988727,959.0
Assam,Lakhimpur,27.14128805970149,94.0775949253732,307,1042137,529674,512463,683486,375552,307934,1948,15011,293239,34694,65.58504304136596,70.90247963841911,60.089021061032696,968.0
Assam,Nagaon,26.26462170626351,92.9306191144708,305,2823768,1439112,1384656,1710716,921850,788866,5121,45956,674999,124186,60.582739091880065,64.05686284319775,56.97198437734715,962.0
Assam,Nalbari,26.46323767605632,91.40598521126763,323,771639,396006,375633,531771,293184,238587,1631,12360,210706,28238,68.91447943921963,74.03524189027439,63.51598501729081,949.0
Assam,Sonitpur,26.73514926829268,92.85197804878044,306,1924110,983904,940206,1108572,620525,488047,4358,31254,483325,64528,57.614793333021495,63.06763668000131,51.90851792054082,956.0
Assam,Tinsukia,27.53549291139241,95.69055949367085,309,1327929,680231,647698,798322,453449,344873,5135,27948,290704,90910,60.11782256430879,66.66103132612304,53.24595722080352,952.0
Bihar,Araria,26.211528119180603,87.30766554934816,209,2811569,1463333,1348236,1195768,727643,468125,2561,29796,659061,44213,42.530274021373835,49.72504549545456,34.721295084836775,921.0
Bihar,Aurangabad,24.774291867469877,84.45986024096379,235,2540073,1318684,1221389,1466002,868733,597269,2362,31168,428291,49006,57.71495543632014,65.87878521313674,48.90080064582209,926.0
Bihar,Aurangabad,24.774291867469877,84.45986024096379,515,3701282,1924469,1776813,2503837,1430936,1072901,23258,69937,551789,427343,67.64783121091557,74.35484801262062,60.383450593844145,923.0
Maharashtra,Aurangabad,20.0979228832952,75.32072196796334,235,2540073,1318684,1221389,1466002,868733,597269,2362,31168,428291,49006,57.71495543632014,65.87878521313674,48.90080064582209,926.0
Maharashtra,Aurangabad,20.0979228832952,75.32072196796334,515,3701282,1924469,1776813,2503837,1430936,1072901,23258,69937,551789,427343,67.64783121091557,74.35484801262062,60.383450593844145,923.0
Bihar,Banka,24.832355642023337,86.8664916342413,225,2034763,1067140,967623,965321,590961,374360,1704,22300,425604,18492,47.44144649770023,55.37801975373428,38.68862149824881,907.0
Bihar,Begusarai,25.54302613168723,86.12560144032932,222,2970541,1567660,1402881,1548673,918507,630166,4644,43127,594377,139248,52.13437552284247,58.5909572228672,44.91941939480255,895.0
Bihar,Bhagalpur,25.277192885375477,87.04213814229242,224,3037766,1615663,1422103,1573066,937669,635397,6764,46929,522527,130634,51.78364627163514,58.03617462304948,44.68009701125727,880.0
Bihar,Bhojpur,25.50666439393939,84.49407803030304,231,2728407,1430380,1298027,1599151,973486,625665,3661,34658,434559,77368,58.61116028510409,68.05785875082147,48.201231561439016,907.0
Bihar,Buxar,25.48593018867924,84.08808081760995,232,1706352,887977,818375,989807,593544,396263,1784,19324,299252,35405,58.00719898356259,66.84227181559883,48.420711776386135,922.0
Bihar,Darbhanga,26.146187719298258,85.97387352472099,215,3937385,2059949,1877436,1816634,1125566,691068,6280,53205,907174,95539,46.138084032930486,54.640478963314145,36.80913756847104,911.0
Bihar,Gaya,24.7266541547278,84.94291217765044,236,4391418,2266566,2124852,2297613,1368803,928810,6856,57011,696289,111282,52.32052608064184,60.39104972014934,43.711750277195776,937.0
Bihar,Gopalganj,26.44874364161851,84.34636127167629,217,2562012,1267666,1294346,1382998,793905,589093,3707,33596,515925,38133,53.98093373489273,62.62730088209355,45.512791788285355,1021.0
Bihar,Jamui,24.78418380462726,86.26316298200514,238,1760405,916064,844341,858588,534385,324203,1839,22414,325909,30851,48.77218594584769,58.33489799839312,38.3971641789277,922.0
Bihar,Jehanabad,25.155679045643165,84.9208124481328,239,1125313,585582,539731,618881,374412,244469,1106,11302,186660,28132,54.99634323961422,63.93844073076017,45.294600458376486,922.0
Bihar,Katihar,25.56565356037151,87.70466083591326,212,3071029,1600430,1470599,1280190,762256,517934,2941,27263,668232,69838,41.68602771253544,47.62819992127116,35.21925419505929,919.0
Bihar,Khagaria,25.53558891454964,86.56593256351037,223,1666886,883786,783100,768028,461153,306875,1580,21654,373696,21007,46.07561644887533,52.179260590233376,39.18720469927212,886.0
Bihar,Kishanganj,26.324336758321294,87.95045007235886,210,1690400,866970,823430,745056,439921,305135,1093,14073,401793,43357,44.07572172266919,50.74235556016933,37.056580401491324,950.0
Bihar,Lakhisarai,25.183449321266963,86.12825701357468,227,1000912,526345,474567,507270,305182,202088,1186,8862,175882,31763,50.68077912943396,57.98136203440709,42.58366047365282,902.0
Bihar,Madhepura,25.77341929460581,86.8978443983403,213,2001762,1047559,954203,834577,517666,316911,1397,23309,486278,24000,41.692119242946966,49.41640518576997,33.21211524172529,911.0
Bihar,Madhubani,26.41380538172716,86.16328360450552,207,4487379,2329313,2158066,2155338,1340085,815253,5319,65548,1047552,41234,48.03111125670464,57.531340785888375,37.77701886781961,926.0
Bihar,Munger,25.198537962962963,86.54173672839504,226,1367765,729041,638724,801817,473741,328076,2653,17946,222281,85782,58.62242417374329,64.98139336470788,51.36428253831076,876.0
Bihar,Muzaffarpur,26.18664417177915,85.32745092024543,216,4801062,2527497,2273565,2509232,1487117,1022115,10290,73012,998694,120700,52.264103233826184,58.83753769045027,44.95648903814054,900.0
Bihar,Nalanda,25.229345508982053,85.48053113772461,229,2877653,1497060,1380593,1519933,919558,600375,4156,43848,514141,102522,52.818494794195125,61.42425821276368,43.486748085786324,922.0
Bihar,Nawada,24.825708836206903,85.61594568965519,237,2219146,1144668,1074478,1091012,659474,431538,1841,28411,379551,45323,49.163597167559054,57.61268769634514,40.162571965177506,939.0
Bihar,Pashchim Champaran,27.16064352201258,84.30265911949685,203,3935042,2061110,1873932,1759481,1091226,668255,3495,41143,839514,96620,44.713144103671574,52.943608055853396,35.66057893242658,909.0
Bihar,Patna,25.40297114503818,85.3198433587787,230,5838465,3078512,2759953,3459679,2028047,1431632,40692,132582,657991,552103,59.25665393215511,65.87750835468565,51.87160795854132,897.0
Bihar,Purba Champaran,26.68129336734693,85.00382155612242,204,5099371,2681209,2418162,2276957,1407603,869354,7719,70258,1142260,101565,44.65172273207813,52.49881676512349,35.95102395951967,902.0
Bihar,Purnia,25.81714801901739,87.40447606973065,211,3264619,1699370,1565249,1332326,805261,527065,4170,33664,712847,85749,40.81107167482637,47.385854757939704,33.672917216366216,921.0
Bihar,Rohtas,24.99170460829495,83.9350762672811,234,2959918,1543546,1416372,1799832,1061783,738049,4594,36279,512383,95678,60.806819648382145,68.7885557022596,52.10841502091258,918.0
Bihar,Saharsa,25.821270696721303,86.54670819672135,214,1900661,997174,903487,804996,506374,298622,1668,19415,432651,38046,42.35347597493714,50.78090684273757,33.052163451161995,906.0
Bihar,Samastipur,25.793205563909765,85.94833323308269,221,4261566,2230003,2031563,2142880,1293575,849305,5379,50918,1012979,43486,50.28386278659066,58.00776949627422,41.80549655609991,911.0
Bihar,Saran,25.89656077844312,84.82266287425155,219,3951862,2022821,1929041,2157454,1285767,871687,4509,37442,701323,76299,54.59335371528662,63.5630636620838,45.18758284556938,954.0
Bihar,Sheikhpura,25.12472436548223,85.77839390862943,228,636342,329743,306599,328676,196431,132245,631,8873,108293,24345,51.65084184290837,59.57093857943914,43.132886930485746,930.0
Bihar,Sheohar,26.458380748663107,85.29539411764709,205,656246,346673,309573,283698,171645,112053,478,6698,158484,7516,43.23043492836528,49.51207622168441,36.19598608405772,893.0
Bihar,Sitamarhi,26.56570069686413,85.61172491289203,206,3423574,1803252,1620322,1436794,885188,551606,3460,42461,807294,49670,41.96766303284229,49.0884246905036,34.042986517494676,899.0
Bihar,Siwan,26.1736372013652,84.33766552901022,218,3330464,1675090,1655374,1930175,1115906,814269,3834,37833,632514,41858,57.95513778260326,66.6176742742181,49.18942788759519,988.0
Bihar,Supaul,26.28157893772896,86.78496465201461,208,2229076,1155283,1073793,1033283,647672,385611,1845,25078,572287,27815,46.35476762568885,56.06176149047462,35.911111359451965,929.0
Bihar,Vaishali,25.8134703180212,85.39247597173153,220,3495021,1844535,1650486,1926740,1152576,774164,4810,39564,699317,51494,55.12813799974307,62.48599240458977,46.90521458527973,895.0
Chandigarh,Chandigarh,30.7426,76.75872465753424,55,1055450,580663,474787,805438,465346,340092,44283,78113,8911,289456,76.31228385996495,80.14046012919714,71.63043638515798,818.0
Chhattisgarh,Bastar,19.393866751269048,81.52895126903546,414,1413199,698487,714712,650863,382335,268528,1782,9042,316425,54894,46.05600485140451,54.737597120633595,37.57149733039322,1023.0
Chhattisgarh,Bilaspur,22.356942982456143,81.99770350877188,30,381956,192764,189192,287620,155599,132021,1574,6281,152458,11987,75.3018672307805,80.71994770807828,69.78149181783586,981.0
Chhattisgarh,Bilaspur,22.356942982456143,81.99770350877188,406,2663629,1351574,1312055,1596560,932474,664086,8566,30892,549632,188174,59.939278330428145,68.99170892603735,50.61418919176407,971.0
Himachal Pradesh,Bilaspur,31.3780422907489,76.65316079295157,30,381956,192764,189192,287620,155599,132021,1574,6281,152458,11987,75.3018672307805,80.71994770807828,69.78149181783586,981.0
Himachal Pradesh,Bilaspur,31.3780422907489,76.65316079295157,406,2663629,1351574,1312055,1596560,932474,664086,8566,30892,549632,188174,59.939278330428145,68.99170892603735,50.61418919176407,971.0
Chhattisgarh,Dhamtari,20.554912627291245,81.7569195519348,412,799781,397897,401884,546833,303924,242909,1016,4804,168689,41792,68.37284206551544,76.38258142182525,60.442565516417666,1010.0
Chhattisgarh,Durg,21.194463849287164,81.33181639511197,409,3343872,1682101,1661771,2303378,1284612,1018766,16141,51289,533448,349741,68.88355774383709,76.3694926761235,61.306040362962165,988.0
Chhattisgarh,Jashpur,22.77286167664669,83.8703962075848,402,851669,424747,426922,495415,280656,214759,567,5755,205670,20722,58.16989933882765,66.0760405606161,50.304036802975716,1005.0
Chhattisgarh,Korba,22.491712499999995,82.57604326923074,404,1206640,612915,593725,748759,433391,315368,4544,18004,206598,126055,62.05322217065571,70.70980478532913,53.1168470251379,969.0
Chhattisgarh,Koriya,23.50412776859501,82.12515636363635,400,658917,334737,324180,397823,229923,167900,1667,7609,121852,59763,60.375282471085136,68.68765627940742,51.79221420198655,968.0
Chhattisgarh,Mahasamund,21.223727037773354,82.65925427435384,411,1032754,511967,520787,637963,364089,273874,961,5614,274793,35774,61.772987565286606,71.11571644266135,52.58848627173873,1017.0
Chhattisgarh,Raigarh,22.008265068493166,83.27797698630134,403,1493984,750278,743706,951639,542756,408883,3342,13857,354278,66638,63.6980717330306,72.34065239817774,54.97911809236445,991.0
Chhattisgarh,Raigarh,22.008265068493166,83.27797698630134,520,2634200,1344345,1289855,1939994,1059692,880302,38570,96301,581868,377160,73.64642016551515,78.82589662623806,68.24813641843464,959.0
Maharashtra,Raigarh,18.453257637845976,73.0090609418579,403,1493984,750278,743706,951639,542756,408883,3342,13857,354278,66638,63.6980717330306,72.34065239817774,54.97911809236445,991.0
Maharashtra,Raigarh,18.453257637845976,73.0090609418579,520,2634200,1344345,1289855,1939994,1059692,880302,38570,96301,581868,377160,73.64642016551515,78.82589662623806,68.24813641843464,959.0
Chhattisgarh,Raipur,20.88603153846152,82.20032759615388,410,4063872,2048186,2015686,2629749,1493158,1136591,20261,59523,673499,395001,64.71042887177549,72.90148453314299,56.38730437181187,984.0
Chhattisgarh,Surguja,23.32719278728607,83.23582493887531,401,2359886,1193129,1166757,1187941,694686,493255,2737,18983,525596,65167,50.33891467638691,58.22388023424122,42.27572665087932,978.0
Daman and Diu,Daman,20.431616666666677,72.8392366071429,495,191173,124659,66514,150348,104316,46032,1316,4543,10006,61073,78.64499693994445,83.6810819916733,69.20648284571669,534.0
Daman and Diu,Junagadh,20.72568199498111,70.83985639899612,479,2743082,1404356,1338726,1842818,1046981,795837,6628,26991,489237,287506,67.18056550988997,74.55239269814776,59.44734023242994,953.0
Gujarat,Junagadh,20.929523011609785,70.54733890140345,479,2743082,1404356,1338726,1842818,1046981,795837,6628,26991,489237,287506,67.18056550988997,74.55239269814776,59.44734023242994,953.0
Goa,North Goa,15.548723418714054,73.80667997909038,585,818008,416677,401331,663060,351738,311322,23440,56266,115859,209230,81.05788696443066,84.41502650734262,77.57237791249617,963.0
Goa,South Goa,15.195278658183785,73.941792596877,586,640537,322463,318074,502427,264085,238342,17624,44299,88620,162873,78.43840402662141,81.89621755054068,74.93287725497841,986.0
Gujarat,Ahmadabad,22.605425564971743,72.23898135593227,474,7214225,3788051,3426174,5435760,3025463,2410297,126341,273651,353169,1845383,75.34780243200066,79.86859205433085,70.34952106927436,904.0
Gujarat,Amreli,21.04832649310872,71.43457637825426,480,1514190,771049,743141,995459,558180,437279,2538,12765,313714,116899,65.74201388200952,72.39228635274802,58.84199633716886,964.0
Gujarat,Anand,22.282718206229863,72.57782051557454,482,2092745,1087224,1005521,1551253,874481,676772,9902,32523,413078,208909,74.12527565470232,80.43245918044487,67.30560575065066,925.0
Gujarat,Banas Kantha,24.258538965517253,71.93205252873561,469,3120506,1610379,1510127,1704923,1048402,656521,3424,23149,666773,137424,54.63610709288814,65.1028112015867,43.47455545129648,938.0
Gujarat,Bharuch,21.75787276237761,72.67326346710801,488,1551019,805707,745312,1118276,623047,495229,10257,29531,300677,181319,72.09943914291186,77.32922762244836,66.44586428234082,925.0
Gujarat,Bhavnagar,21.70219390341736,72.16272632761141,481,2880365,1490201,1390164,1887255,1087371,799884,7297,28925,387251,356826,65.52138357465113,72.96807611859072,57.5388227576027,933.0
Gujarat,Gandhinagar,23.193679790026252,72.67221679790026,473,1391753,723864,667889,1030494,582686,447808,12107,33662,237624,195634,74.04287973512541,80.49661262336572,67.048267002451,923.0
Gujarat,Jamnagar,22.410600414263328,69.62062005768233,477,2160119,1114192,1045927,1396534,795140,601394,11573,30384,347158,299167,64.65079007221361,71.36471990464838,57.49865908423819,939.0
Gujarat,Kachchh,23.48057203301311,68.82192301497916,468,2092371,1096737,995634,1252319,739239,513080,9631,31961,488293,250982,59.851670664523645,67.40348871242604,51.53299304764602,908.0
Gujarat,Kheda,22.88765312500002,73.018803515625,483,2299885,1185727,1114158,1660243,942480,717763,5710,24502,461479,160547,72.18808766525284,79.48541274677898,64.42201195880656,940.0
Gujarat,Mahesana,23.529355452865065,72.45545194085031,471,2035064,1056520,978544,1502645,847499,655146,7759,33731,476005,183738,73.83772697074883,80.21608677545147,66.95110286302915,926.0
Gujarat,Narmada,21.70666386292833,73.68403208722742,487,590297,301086,289211,370336,211767,158569,576,4081,138121,22248,62.73723227460075,70.33438950997389,54.82813585928613,961.0
Gujarat,Navsari,20.866973318871995,72.86184869848157,490,1329672,678165,651507,1001909,539471,462438,6726,24397,267739,141417,75.35008633708162,79.54863491923057,70.97974388609792,961.0
Gujarat,Panch Mahals,22.80435606837605,73.61984598290586,484,2390776,1226961,1163815,1440805,858054,582751,3456,19753,463363,104238,60.26516076788457,69.93327416274845,50.07247715487427,949.0
Gujarat,Patan,23.80634198473284,71.75162977099237,470,1343734,694397,649337,837913,494631,343282,2231,12870,301483,102655,62.3570587631183,71.23173055183129,52.86653925465513,935.0
Gujarat,Porbandar,21.55092351651571,69.71896987722886,478,585449,300209,285240,393678,221621,172057,1653,5639,96015,87557,67.24377358232742,73.82223717476825,60.32008133501613,950.0
Gujarat,Rajkot,22.40603377715488,70.83679439383323,476,3804558,1974445,1830113,2725056,1514075,1210981,21785,67370,459474,721532,71.62608639426709,76.68357437153225,66.16973924560942,927.0
Gujarat,Sabar Kantha,23.71803594548552,73.13638790459964,472,2428589,1244231,1184358,1578734,918625,660109,5262,25425,544024,121509,65.00622377849854,73.83074364808463,55.735596838118205,952.0
Gujarat,Surat,21.25761372772093,72.93488716344339,492,6081322,3402224,2679098,4571410,2687468,1883942,55694,149331,369840,1529998,75.17131965714033,78.99150673206702,70.32001069016512,787.0
Gujarat,Surendranagar,22.82672007299272,71.48358740875906,475,1756268,909917,846351,1093626,643221,450405,2975,15309,340788,159810,62.269881362070024,70.69007392981997,53.21728219143122,930.0
Gujarat,The Dangs,20.801633877551023,73.6883518367347,489,228291,113821,114470,140968,77314,63654,137,1393,52102,7516,61.749258621671466,67.92595391008689,55.6075827727789,1006.0
Gujarat,Vadodara,22.26133739279589,73.49433010291594,486,4165626,2153736,2011890,2893080,1614087,1278993,53606,117818,547454,692971,69.45126614823319,74.94358640056163,63.571716147503096,934.0
Gujarat,Valsad,20.44238231644259,72.9148584798345,491,1705678,887222,818456,1170657,655528,515129,11020,31285,262410,235981,68.63294244282918,73.88545369704539,62.9391195128388,922.0
Haryana,Ambala,30.3503672316384,76.94970310734456,70,1128350,598703,529647,818025,461288,356737,12899,32767,175365,139891,72.49745203172775,77.04788517846077,67.35372804905909,885.0
Haryana,Bhiwani,28.728868064516128,76.02110225806452,81,1634445,866672,767773,1069871,643158,426713,5292,25236,357047,99235,65.45775477302693,74.2100817841121,55.57801589792817,886.0
Haryana,Faridabad,28.14873109756098,77.32718536585368,88,1809733,966110,843623,1272739,734940,537799,43437,82673,87700,382981,70.32744609287668,76.072082889112,63.748736106056846,873.0
Haryana,Fatehabad,29.57298318584072,75.54608716814157,78,942011,495360,446651,557578,327471,230107,3210,13142,203020,55360,59.19017930788494,66.10767926356588,51.51829952244593,902.0
Haryana,Gurgaon,28.043894789579163,77.01935130260523,86,1514432,816690,697742,1111116,638666,472450,67087,102343,141703,381988,73.3684972319655,78.20176566383817,67.71127436788956,854.0
Haryana,Hisar,29.23628731117825,75.84324682779452,80,1743931,931562,812369,1114311,670200,444111,10132,33400,302013,154113,63.89650737328484,71.94368168731657,54.66862964982661,872.0
Haryana,Jhajjar,28.59651868131869,76.61137142857145,83,958405,514667,443738,676091,399480,276611,5034,19241,211816,78328,70.5433506711672,77.61912071300472,62.336558960467656,862.0
Haryana,Jind,29.45149821958457,76.29598575667653,77,1334152,713006,621146,832758,502049,330709,5263,23750,278335,89665,62.41852502563427,70.4130119522136,53.241749926748305,871.0
Haryana,Kaithal,29.96068539094649,76.37698930041155,73,1074304,571003,503301,646529,385782,260747,3724,15301,231091,75696,60.18119638389133,67.56216692381652,51.80736775806128,881.0
Haryana,Karnal,29.703200647249204,76.87488025889972,74,1505324,797712,707612,978013,564516,413497,11163,29253,292682,135920,64.97026553751883,70.76689331488056,58.435555078206704,887.0
Haryana,Kurukshetra,30.05652659846548,76.78774680306903,72,964655,510976,453679,646893,370828,276065,7356,21951,203553,88268,67.05951868802836,72.57248872745491,60.85029282818909,888.0
Haryana,Mahendragarh,28.1352161458333,76.14018072916659,84,922088,486665,435423,630255,380440,249815,2624,13908,223726,44216,68.35085154562255,78.1728704550358,57.37294538873693,895.0
Haryana,Panchkula,30.700897142857134,76.97173238095236,69,561293,299679,261614,405318,229862,175456,18615,32174,70895,93656,72.2114831291322,76.70273859696543,67.06674719242855,873.0
Haryana,Panipat,29.34352134146342,76.92895914634147,75,1205437,646857,558580,786599,464136,322463,10024,26719,173502,153804,65.25426048810515,71.75248934463104,57.72906298113073,864.0
Haryana,Rewari,28.19164714828897,76.55956007604564,85,900332,474335,425997,636947,375453,261494,5121,18092,199449,69305,70.74579155244955,79.15355181464577,61.38400035681002,898.0
Haryana,Rohtak,28.892517647058817,76.53123235294117,82,1061204,568479,492725,747582,436025,311557,8482,27225,175203,131739,70.44658708410448,76.70028268414488,63.23141711908266,867.0
Haryana,Sirsa,29.63583446327684,74.90970480225988,79,1295189,682582,612607,782897,456968,325929,6287,22706,245476,93316,60.446544867196984,66.94697486895348,53.20360361536842,897.0
Himachal Pradesh,Chamba,32.66741814595661,76.39354063116366,23,519080,261320,257760,323842,186064,137778,1615,5117,186395,13836,62.3876859058334,71.201591917955,53.45204841713221,986.0
Himachal Pradesh,Hamirpur,31.67668481012659,76.49767088607594,28,454768,217070,237698,358091,180555,177536,2521,7525,196116,15232,78.74146817718045,83.17823743492883,74.68973234945182,1095.0
Himachal Pradesh,Hamirpur,31.67668481012659,76.49767088607594,168,1104285,593537,510748,653299,408125,245174,1196,11037,256081,55300,59.16036168199332,68.76150939200083,48.002929037411796,861.0
Uttar Pradesh,Hamirpur,25.738158381502892,79.82619479768789,28,454768,217070,237698,358091,180555,177536,2521,7525,196116,15232,78.74146817718045,83.17823743492883,74.68973234945182,1095.0
Uttar Pradesh,Hamirpur,25.738158381502892,79.82619479768789,168,1104285,593537,510748,653299,408125,245174,1196,11037,256081,55300,59.16036168199332,68.76150939200083,48.002929037411796,861.0
Himachal Pradesh,Kangra,32.14093603238864,76.41205910931173,24,1510075,750591,759484,1152640,606443,546197,8053,22753,588321,39007,76.32998361008559,80.79539989155212,71.91685407460855,1012.0
Himachal Pradesh,Kinnaur,31.60667184065933,78.51613736263741,34,84121,46249,37872,60699,36697,24002,354,2563,44514,0,72.15677417054005,79.34658046660469,63.37663709336713,819.0
Himachal Pradesh,Kullu,31.90911922077925,77.40922649350647,26,437903,225452,212451,307672,174550,133122,2623,7010,167995,20709,70.26030878984615,77.42224508986392,62.66009573972351,942.0
Himachal Pradesh,Mandi,31.635805940594054,76.96556930693067,27,999777,498065,501712,723747,393669,330078,5333,16401,431129,31696,72.39084315802424,79.03968357543694,65.79033389673758,1007.0
Himachal Pradesh,Shimla,31.155725451807253,77.62573042168668,33,814010,425039,388971,612642,342846,269796,9177,24127,279269,95896,75.26222036584316,80.66224511162505,69.36146910695142,915.0
Himachal Pradesh,Sirmaur,30.682764453961443,77.43184689507493,32,529855,276289,253566,362645,205617,157028,2220,8593,171102,21054,68.44230968849968,74.4209867204268,61.927860990826844,918.0
Himachal Pradesh,Solan,31.03864311926604,76.94442140672783,31,580320,308754,271566,428578,244372,184206,5250,14478,192787,51509,73.85201268265784,79.14780051432531,67.83102450233093,880.0
Himachal Pradesh,Una,31.58330388349513,76.18353932038836,29,521173,263692,257481,399715,213281,186434,2412,8238,185091,20126,76.69526241766171,80.88262063316293,72.40689604281481,976.0
Jammu and Kashmir,Doda,33.359614675767915,76.07163720136518,16,409936,213641,196295,219083,138620,80463,596,3077,122267,11350,53.443220405136415,64.88454931403616,40.990855599989814,919.0
Jammu and Kashmir,Jammu,32.713199095022645,74.8477520361991,21,1529958,813821,716137,1137135,641916,495219,19905,46657,254566,248043,74.32458930245144,78.87680460445233,69.15143331513384,880.0
Jammu and Kashmir,Kargil,33.565994894894914,76.63675315315312,4,140802,77785,63017,86236,56301,29935,235,1005,40370,7774,61.246289115211425,72.38027897409526,47.50305473126299,810.0
Jammu and Kashmir,Kathua,32.51781678321678,75.58901398601404,7,616435,326109,290326,389204,228499,160705,1443,6112,181374,33473,63.1378815284661,70.06829005025928,55.35329250566604,890.0
Jammu and Kashmir,Pulwama,33.88414418604652,75.00921860465118,12,560440,293064,267376,293958,178326,115632,1537,5293,147520,21703,52.451288273499394,60.848824830071244,43.246963078211955,912.0
Jammu and Kashmir,Punch,33.791241290322574,74.29593161290322,5,476835,251899,224936,261724,163333,98391,346,3342,132139,15269,54.88774943114495,64.84067026863941,43.741775438346906,893.0
Jammu and Kashmir,Srinagar,34.27312898550724,75.11021159420288,10,1236829,651124,585705,748584,431746,316838,16413,33831,4518,257721,60.52445406761969,66.30780005037444,54.095150288968,900.0
Jammu and Kashmir,Udhampur,33.04770670731707,75.15286951219511,19,554985,296784,258201,322354,197543,124811,1214,5744,148664,34696,58.083371622656465,66.56120276025662,48.338697371427685,870.0
Jharkhand,Bokaro,23.6814965034965,85.98398374125864,355,2062330,1072807,989523,1273520,759088,514432,9754,37997,250312,258452,61.75151406418953,70.75718186029734,51.98787698719484,922.0
Jharkhand,Chatra,24.11619945750453,84.93295804701627,347,1042886,533935,508951,510061,303902,206159,590,9115,200974,14528,48.908605542695945,56.917415041156694,40.50664995254946,953.0
Jharkhand,Deoghar,24.33070100755672,86.75697632241814,350,1492073,775022,717051,793538,489837,303701,1944,13550,257373,64337,53.18359088328788,63.20298004443745,42.35417006600646,925.0
Jharkhand,Dhanbad,23.854509090909097,86.40372924901185,354,2684487,1405956,1278531,1722204,1014950,707254,11568,46646,258764,405455,64.15393332133849,72.18931460159493,55.31770445925832,909.0
Jharkhand,Dumka,24.275006125574265,87.27662450229711,362,1321442,668514,652928,672409,406275,266134,1193,10396,303697,23281,50.88448830898366,60.77284843698113,40.76008380709665,977.0
Jharkhand,Garhwa,24.082114689265527,83.68664265536722,346,1322784,683575,639209,653476,405161,248315,565,8881,272872,19180,49.4015651837337,59.27089200160919,38.847231500182254,935.0
Jharkhand,Giridih,24.30578509874329,86.08710915619386,349,2445474,1258098,1187376,1253475,783736,469739,1944,19976,452564,46886,51.256934238515726,62.295306089032806,39.561099432698654,944.0
Jharkhand,Godda,24.8189,87.2941735483871,351,1313551,677927,635624,604519,376212,228307,874,11925,276454,15576,46.02173802159185,55.494470643594376,35.91856191710823,938.0
Jharkhand,Gumla,23.078532948929148,84.55056787479396,366,1025213,514390,510823,559720,321795,237925,831,7807,216629,16445,54.5954840603855,62.558564513307026,46.576798617133534,993.0
Jharkhand,Jamtara,23.97873318077801,86.95325080091534,363,791042,404830,386212,426312,258260,168052,808,4959,165555,20113,53.89246083014555,63.79467924807945,43.5128892939629,954.0
Jharkhand,Latehar,23.72511185840708,84.48298743362837,359,726978,369666,357312,350682,209706,140976,340,6240,146377,14137,48.23832358063105,56.72850627323043,39.45459430413756,967.0
Jharkhand,Lohardaga,23.488796043165483,84.6605169064748,356,461790,232629,229161,259707,149568,110139,351,2954,96759,14725,56.239199636198265,64.29464942032162,48.06184298375378,985.0
Jharkhand,Pakur,24.57260428082189,87.69691969178076,353,900422,452661,447761,352881,206989,145892,328,4535,200588,16587,39.19062395188034,45.72715564186002,32.58256078577634,989.0
Jharkhand,Palamu,24.196925968109337,84.20310842824594,358,1939869,1006302,933567,1024563,621706,402857,2155,19981,355529,52375,52.81609222066026,61.78125453392719,43.152446476792775,928.0
Jharkhand,Ranchi,23.184235061391547,85.31781937244203,364,2914253,1494937,1419316,1911433,1085244,826189,22538,76565,420740,310242,65.58912352496506,72.59463107809894,58.210363301759436,949.0
Jharkhand,Sahibganj,24.93667989690721,87.68264097938142,352,1150567,589391,561176,483263,287303,195960,591,9563,223450,37543,42.00216067382429,48.745739246103184,34.91952613796741,952.0
Jharkhand,Simdega,22.608760391198054,84.59193691931536,367,599578,300309,299269,343483,191991,151492,423,4649,144169,11114,57.28745884605506,63.93115091455801,50.62067905462978,997.0
Karnataka,Bagalkot,16.15860676328503,75.64526070853468,556,1889752,950111,939641,1113412,641388,472024,3745,26297,324799,165858,58.9184189248113,67.50663869800476,50.23450445436076,989.0
Karnataka,Bangalore Rural,12.936827087794448,77.47369314775169,583,990923,509172,481751,688749,385311,303438,3729,17066,231052,95410,69.50580418458347,75.67403549291791,62.98648056776218,946.0
Karnataka,Belgaum,16.16107219152853,74.72329042357275,555,4779661,2423063,2356598,3052032,1725548,1326484,17560,73497,962777,356198,63.85457043920061,71.21350125853104,56.2880898651361,973.0
Karnataka,Bellary,15.074377548209377,76.47228471074374,565,2452595,1236954,1215641,1421621,813440,608181,9626,40190,371604,251876,57.96395246667305,65.76154004110096,50.029655136672744,983.0
Karnataka,Bidar,17.950361730769224,77.19459961538459,558,1703300,870665,832635,1042673,597198,445475,3971,36072,287134,102269,61.21487700346386,68.59101950807715,53.5018345373423,956.0
Karnataka,Bijapur,16.84015316666667,75.95909166666665,417,255230,128663,126567,86919,54076,32843,117,1462,50449,7942,34.05516592877013,42.02917699727195,25.949102056618234,984.0
Karnataka,Bijapur,16.84015316666667,75.95909166666665,557,2177331,1111022,1066309,1248268,730566,517702,4987,36571,396449,131041,57.330190035414915,65.7562136483346,48.55084220427662,960.0
Karnataka,Chikmagalur,13.425288289676422,75.67626502311249,570,1137961,566622,571339,818345,438257,380088,4510,18727,311660,80766,71.91327295047897,77.34556723882942,66.52582792352702,1008.0
Karnataka,Chitradurga,14.29102220394736,76.57821957236843,566,1659456,840843,818613,1087392,607188,480204,5711,28897,349704,97644,65.52701608237881,72.21181599894392,58.66068581857361,974.0
Karnataka,Davanagere,14.330414586709884,75.91723841166937,567,1945497,986400,959097,1308540,720637,587903,7320,39416,354680,176011,67.25993409396159,73.0572789943228,61.29755384491871,972.0
Karnataka,Dharwad,15.343831376975173,75.13831264108359,562,1847023,937206,909817,1301664,711776,589888,15013,49585,199707,283397,70.47362160622797,75.94659018401504,64.83589557020808,971.0
Karnataka,Gadag,15.507128256880746,75.64861302752298,561,1064570,537147,527423,700177,397178,302999,3373,15625,180066,111906,65.77087462543562,73.9421424675182,57.448954634136165,982.0
Karnataka,Gulbarga,17.070459515951594,76.87503850385033,579,2566326,1301755,1264571,1427368,828359,599009,9752,52483,400704,199303,55.61912243417243,63.6340171537655,47.36855423697048,971.0
Karnataka,Hassan,12.945098749999998,76.11049549999997,574,1776421,883667,892754,1225256,668836,556420,4851,23444,496103,132878,68.9732895524203,75.68869268627209,62.326239927236394,1010.0
Karnataka,Haveri,14.737582809224318,75.3961230607966,564,1597668,819128,778540,1085443,603793,481650,2456,17819,315076,98488,67.93920889696733,73.71167876082859,61.86580008734297,950.0
Karnataka,Kodagu,12.39684468085106,75.79336595744688,576,554519,274608,279911,412877,215302,197575,3308,10758,181182,31792,74.4567814628534,78.40339684204393,70.58493592606222,1019.0
Karnataka,Kolar,13.312799881235172,78.01376947743476,581,1536401,776396,760005,1016219,564110,452109,5051,27235,326567,151042,66.14282339050807,72.6575098274592,59.48763494977006,979.0
Karnataka,Koppal,15.651253271028034,76.1617048598131,560,1389920,699926,689994,809085,468785,340300,2135,15263,272968,64681,58.210904224703576,66.97636607298486,49.31926944292269,986.0
Karnataka,Mandya,12.574901806239744,76.81570098522172,573,1805769,905085,900684,1149649,638668,510981,3367,20265,458867,103435,63.66534146947921,70.56442212609866,56.73254992872084,995.0
Karnataka,Mysore,12.248100259403367,76.52881802853437,577,3001127,1511600,1489527,1962180,1063766,898414,28397,80086,540596,380386,65.38143837298455,70.37351151098174,60.31538871064439,985.0
Karnataka,Raichur,16.050795353982295,76.87368606194688,559,1928812,964511,964301,979769,577213,402556,5200,33903,330446,125402,50.79650064391967,59.84514432702167,41.74588639854153,1000.0
Karnataka,Shimoga,14.063845885634592,75.17882078103197,568,1752753,877415,875338,1263016,674938,588078,8791,35207,352444,201662,72.058983781514,76.92346267159782,67.18296246706986,998.0
Karnataka,Tumkur,13.592467760074973,77.02297966260545,571,2678980,1350594,1328386,1813391,1006024,807367,7971,41751,685443,204799,67.68960574547029,74.48752178671015,60.77804192456109,984.0
Karnataka,Udupi,13.450404228534568,74.72009990316337,569,1177361,562131,615230,926429,465704,460725,9070,24817,269817,115572,78.68691081155228,82.84616930928912,74.88662776522601,1094.0
Kerala,Alappuzha,9.542602965599087,76.38010796263319,598,2127789,1013142,1114647,1852797,890552,962245,28842,71593,331419,392117,87.07616215705599,87.90001796391819,86.32733053603518,1100.0
Kerala,Ernakulam,10.004879301987431,76.26957729035381,595,3282388,1619557,1662831,2855676,1425723,1429953,88737,184167,369694,804997,86.99995247362591,88.03166544925557,85.99508909805024,1027.0
Kerala,Idukki,9.80480963855423,77.04586641566264,596,1108974,552808,556166,923010,471881,451129,8250,24863,391610,20823,83.23098647939446,85.36074007612045,81.11409183589072,1006.0
Kerala,Kannur,11.941523076923056,75.35209891725934,589,2523003,1181446,1341557,2138434,1012956,1125478,32653,83940,306288,566191,84.75748938863728,85.7386626219057,83.89341638111537,1136.0
Kerala,Kasaragod,12.33310309912974,75.07768497134369,588,1307375,628613,678762,1037492,516476,521016,10378,32484,251641,166164,79.35687924275744,82.16120252046967,76.75974789395988,1080.0
Kerala,Kollam,8.929388820570157,76.6360775852431,600,2635375,1246968,1388407,2240273,1074345,1165928,31542,83133,523715,401415,85.00775032016317,86.15658140385318,83.97595229640876,1113.0
Kerala,Kottayam,9.643701174068417,76.46059673302705,597,1974551,968289,1006262,1749798,861592,888206,37849,83999,481967,196194,88.61751355118201,88.98087244613954,88.26786661923039,1039.0
Kerala,Kozhikode,11.392924270557026,75.71158720159153,591,3086293,1470942,1615351,2615443,1266939,1348504,36791,107602,323793,666543,84.74383345975252,86.13113229481516,83.48055623824172,1098.0
Kerala,Malappuram,10.97329875666072,75.93910775606876,592,4112920,1960328,2152592,3311315,1597404,1713911,27909,119918,634543,522586,80.51007556675063,81.48656755400117,79.62080134089507,1098.0
Kerala,Palakkad,10.784926903553291,76.49980490693744,593,2809934,1359478,1450456,2239492,1122600,1116892,27162,69440,665899,228442,79.69909613535407,82.57581218673637,77.00281842399907,1067.0
Kerala,Thiruvananthapuram,8.537101759082221,76.88711502868073,601,3301427,1581678,1719749,2785408,1354857,1430551,71621,155321,559293,609824,84.36981947503307,85.65947051169707,83.18370878540996,1087.0
Kerala,Thrissur,10.458932647907687,76.12321940836945,594,3121200,1480763,1640437,2678548,1282261,1396287,56148,132774,336748,715119,85.81789055491478,86.59461372279021,85.11677071414508,1108.0
Kerala,Wayanad,11.715277464788736,76.07587007042254,590,817420,401684,415736,645585,328136,317449,4712,15944,266183,11805,78.97837097208289,81.690084743231,76.35831392999404,1035.0
Madhya Pradesh,Anuppur,23.18184220430107,81.86560000000007,461,749237,379114,370123,436595,254120,182475,1290,7266,147388,60325,58.27194866243926,67.02996987713459,49.301178256957826,976.0
Madhya Pradesh,Ashoknagar,24.63098846153845,77.82974493927134,459,845071,443837,401234,469109,290304,178805,619,6016,169606,37135,55.51119373401762,65.40779610532695,44.56377076718324,904.0
Madhya Pradesh,Balaghat,21.80020720640569,80.42170053380796,457,1701698,842178,859520,1147623,626468,521155,1712,13306,400074,70793,67.43987476038639,74.38664985311894,60.63326042442293,1021.0
Madhya Pradesh,Barwani,21.702135714285724,74.91004719710673,441,1385881,699340,686541,549926,313642,236284,1158,8516,250358,48912,39.68060749804636,44.84828552635342,34.416589832216864,982.0
Madhya Pradesh,Betul,21.964626315789477,77.7873428189117,447,1575362,799236,776126,939769,529783,409986,2109,13755,318945,87704,59.654162027521295,66.28617830027676,52.82467022107235,971.0
Madhya Pradesh,Bhind,26.35951126187245,78.7618324287653,420,1703005,926843,776162,1094917,676513,418404,1166,14368,271211,88385,64.29323460588783,72.9911106843338,53.90678750054757,837.0
Madhya Pradesh,Bhopal,23.480726143790854,77.39246623093679,444,2371061,1236130,1134931,1660690,920314,740376,40788,94729,118893,581826,70.03995257819179,74.45123085759589,65.23533148711243,918.0
Madhya Pradesh,Burhanpur,21.364567254408065,76.24460478589425,467,757847,388504,369343,408679,233073,175606,986,5058,115979,62861,53.92632022030832,59.992432510347385,47.545506480426056,951.0
Madhya Pradesh,Chhatarpur,24.813637376460004,79.56449299191374,425,1762375,936121,826254,943033,572010,371023,1880,15567,375869,95048,53.50921341939144,61.10428032273606,44.90423041824911,883.0
Madhya Pradesh,Chhindwara,22.227966971713823,78.76413136439254,455,2090922,1064468,1026454,1294198,731294,562904,3588,20034,413142,140802,61.89604394616346,68.70042124328772,54.839671334516694,964.0
Madhya Pradesh,Damoh,23.76624407960196,79.47049303482588,428,1264219,661873,602346,747715,445737,301978,1432,10504,303387,66514,59.1444203891889,67.34479273214046,50.133644118164646,910.0
Madhya Pradesh,Datia,25.90226439560441,78.63916571428574,422,786754,420157,366597,491445,303815,187630,616,5251,160453,43401,62.46488737267304,72.30987464209807,51.18154267492642,873.0
Madhya Pradesh,Dewas,22.7851110021322,76.46088805970157,437,1563715,805359,758356,925369,550716,374653,3518,16523,274995,101014,59.17759949862986,68.38142989648095,49.40331453829072,942.0
Madhya Pradesh,Dhar,22.572681718963157,75.1105620736698,438,2185793,1112725,1073068,1077338,638479,438859,2388,18626,412348,103364,49.28819883676084,57.37976589004471,40.89759456064294,964.0
Madhya Pradesh,Dindori,22.83738437047757,81.04332966714911,453,704524,351913,352611,378714,222759,155955,554,6447,218021,9774,53.754591752729496,63.29945185315688,44.22862587951028,1002.0
Madhya Pradesh,Guna,24.49043927178156,77.2235895968791,458,1241519,649362,592157,653980,400537,253443,2482,11740,212765,72320,52.67579473209834,61.681619805285806,42.79996690066992,912.0
Madhya Pradesh,Gwalior,26.04074441964285,78.12782433035713,421,2032036,1090327,941709,1357210,803114,554096,15779,46454,172720,272172,66.79064740978998,73.6580860604204,58.839407927502016,864.0
Madhya Pradesh,Harda,22.227659781121783,77.07022571819435,448,570465,294838,275627,352550,203807,148743,986,5376,112714,31845,61.80046102740746,69.12507885686377,53.96532270060626,935.0
Madhya Pradesh,Hoshangabad,22.595268801996703,78.02168094841929,449,1241350,648725,592625,810644,469199,341445,2871,14456,209650,105746,65.3034196640754,72.32633242128792,57.61569289179498,914.0
Madhya Pradesh,Indore,22.680265752128648,75.9133801324502,439,3276697,1699627,1577070,2309130,1289631,1019499,48691,111478,200371,587947,70.47127030665331,75.87729543011497,64.64513306321216,928.0
Madhya Pradesh,Jabalpur,23.18525572327043,79.98328754716981,451,2463289,1277278,1186011,1756468,980307,776161,20443,58601,272284,352477,71.30580293258323,76.74969740338439,65.44298493015663,929.0
Madhya Pradesh,Jhabua,22.419578015397768,74.40921616766468,464,1025048,515023,510025,352081,214582,137499,744,5591,211080,24713,34.34775737331325,41.66454702023017,26.959266702612616,990.0
Madhya Pradesh,Katni,23.724416229116937,80.33819665871127,450,1292042,662013,630029,790773,460583,330190,2179,13094,276151,72880,61.20335097465872,69.57310505987041,52.408698647205135,952.0
Madhya Pradesh,Mandla,22.70348712446353,80.38600543633753,454,1054905,525272,529633,604962,348033,256929,912,9042,279674,37258,57.347533664168814,66.25767221553785,48.51076122522577,1008.0
Madhya Pradesh,Mandsaur,24.19278764044944,75.43588667736759,433,1340411,682851,657560,834591,502898,331693,2324,12507,302287,81832,62.26381311403741,73.64681314078767,50.443001399111864,963.0
Madhya Pradesh,Morena,26.37313504531724,77.88447341389724,419,1965970,1068417,897553,1179685,747652,432033,1781,20172,319298,95288,60.00523914403577,69.97754622024921,48.13453913027978,840.0
Madhya Pradesh,Neemuch,24.70311893333336,75.06608186666664,432,826067,422653,403414,508834,307889,200945,1945,8342,174235,67962,61.59718279510016,72.84675608596177,49.811112157733746,954.0
Madhya Pradesh,Panna,24.451325840092657,80.21133001158752,426,1016520,533480,483040,552559,332140,220419,653,8501,256744,32179,54.35790737024357,62.25912873959661,45.63162471016893,905.0
Madhya Pradesh,Raisen,23.292518206521724,78.16305495923909,446,1331597,700358,631239,820220,479093,341127,1141,9931,251272,74441,61.59671432122481,68.40687191407822,54.040862494237516,901.0
Madhya Pradesh,Rajgarh,23.785499026425583,76.66431223922116,442,1545814,790212,755602,804245,488797,315448,1611,12718,331894,69823,52.0272814193687,61.856438525357746,41.74790431999915,956.0
Madhya Pradesh,Ratlam,23.503562290502792,75.14895782122909,434,1455069,738241,716828,825880,485090,340790,3644,14905,266716,107151,56.75882037209232,65.70889452089493,47.54139068228362,971.0
Madhya Pradesh,Rewa,24.861184625158856,81.57572465057183,430,2365106,1225100,1140006,1441757,845572,596185,3406,31194,523910,94489,60.959508791572134,69.02065137539792,52.29665457901099,931.0
Madhya Pradesh,Sagar,23.800318709677374,78.71940357771273,427,2378458,1256257,1122201,1545719,908607,637112,4546,24811,448408,165507,64.98828232409402,72.3265223596764,56.773430071796405,893.0
Madhya Pradesh,Satna,24.62777621776502,80.75547048710598,429,2228935,1157495,1071440,1371781,801051,570730,3754,22751,461831,114173,61.54423525136444,69.20556892254393,53.26756514597177,926.0
Madhya Pradesh,Sehore,22.9297199679658,77.06780202883085,445,1311332,683743,627589,780362,469208,311154,1566,11166,270427,59220,59.509109821158944,68.62344477384046,49.57926286152243,918.0
Madhya Pradesh,Seoni,22.33230487804874,79.66053863928111,456,1379131,695879,683252,864194,485341,378853,1182,10417,335045,47542,62.66221265420037,69.74502751196688,55.4485021631843,982.0
Madhya Pradesh,Shahdol,23.44859864559819,81.4596831828442,460,1066063,540021,526042,604194,348761,255433,1733,10817,233594,57846,56.67526215617651,64.5828588147498,48.55752962691192,974.0
Madhya Pradesh,Shajapur,23.566620317220547,76.33555181268885,436,1512681,780520,732161,894612,543509,351103,1382,10797,312611,73997,59.14082347831433,69.63421821349868,47.95434337529587,938.0
Madhya Pradesh,Sheopur,25.78014810996563,77.16911116838484,418,687861,361784,326077,328025,208201,119824,273,5393,150146,26376,47.687686901859536,57.54842668553613,36.74714867960635,901.0
Madhya Pradesh,Shivpuri,25.37802451874367,77.74861600810549,423,1726050,919795,806255,900846,573242,327604,1852,15304,367859,66759,52.19118797253846,62.32280018917259,40.63280227719518,877.0
Madhya Pradesh,Sidhi,24.17547189952905,82.1053783359498,462,1127033,575912,551121,600785,353030,247755,837,10790,250953,25916,53.306779836970165,61.29929572573588,44.95473770732743,957.0
Madhya Pradesh,Tikamgarh,25.14099852104666,78.89357064846428,424,1445166,760355,684811,747940,459353,288587,1090,10899,322772,60220,51.75460812114318,60.412964996613425,42.14111630800323,901.0
Madhya Pradesh,Ujjain,23.319288862745065,75.80383717647058,435,1986864,1016289,970575,1240990,730817,510173,7501,27733,300765,188684,62.45973554304673,71.91035227184393,52.56399556963656,955.0
Madhya Pradesh,Umaria,23.59601063063061,80.90879477477475,431,644758,330674,314084,356672,210907,145765,839,6360,138100,29966,55.318739744214106,63.780944374217505,46.40955922619427,950.0
Madhya Pradesh,Vidisha,23.82838307984792,77.9013507604563,443,1458875,769568,689307,862918,512344,350574,1926,12888,292579,83830,59.1495501670808,66.57553328620732,50.85890611875406,896.0
Maharashtra,Akola,20.746310479041902,77.12122320359276,501,1813906,932334,881572,1411281,758977,652304,6163,24232,308158,196077,77.80342531531403,81.40612698882589,73.99327564850063,946.0
Maharashtra,Amravati,21.16520991810736,77.67583503184723,503,2888445,1480768,1407677,2251875,1207104,1044771,9438,36185,508921,272894,77.96149831483721,81.51877944418032,74.21951200452945,951.0
Maharashtra,Bhandara,21.211792649727748,80.10950199637024,506,1200334,605520,594814,899860,488709,411151,2932,13165,283843,72575,74.9674673882436,80.7089774078478,69.12261648179094,982.0
Maharashtra,Bid,18.952353340080982,75.69319706477731,523,2585049,1349106,1235943,1718507,987185,731322,5614,29198,563114,135457,66.4787011774245,73.1732717814612,59.171175369737924,916.0
Maharashtra,Buldana,20.56680611183355,76.39017880364096,500,2586258,1337560,1248698,1879874,1048892,830982,4767,24877,575405,152787,72.68702503771858,78.418313944795,66.54787626792067,934.0
Maharashtra,Chandrapur,20.095609090909075,79.31556380471388,509,2204307,1123834,1080473,1578615,872565,706050,8239,31419,451324,233331,71.61502458595831,77.64180475052366,65.34638070548732,961.0
Maharashtra,Dhule,21.274018690400517,74.58719071837263,498,2050862,1054031,996831,1293916,723388,570528,6065,27139,382777,146013,63.09132452597981,68.63061902353915,57.23417510089474,946.0
Maharashtra,Gondiya,21.225008411214997,80.17522698598128,507,1322507,661554,660953,1004243,542837,461406,2866,13595,319702,66813,75.93479656440381,82.05482847961014,69.80919974642676,999.0
Maharashtra,Hingoli,19.59525302245251,77.09239412780653,512,1177345,606294,571051,790743,450551,340192,1221,9676,242456,41913,67.16323592489883,74.31229733429656,59.57296283519335,942.0
Maharashtra,Jalgaon,20.8828943415638,75.55140421810695,499,4229917,2197365,2032552,2891882,1629223,1262659,14297,56775,796223,373565,68.36734621506758,74.14439567390943,62.121854693016466,925.0
Maharashtra,Jalna,19.984612534818933,75.98473607242339,514,1959046,1011473,947573,1195523,699428,496095,3791,17236,404746,98084,61.02577479038267,69.1494483787506,52.354277717917256,937.0
Maharashtra,Kolhapur,16.44881301587301,74.12897150793648,530,3876001,1980658,1895343,2825845,1559760,1266085,22269,71879,796496,382818,72.90619894060914,78.74958725837575,66.79978241405381,957.0
Maharashtra,Latur,18.348687268993856,76.75812607802874,524,2454196,1273140,1181056,1650672,932432,718240,6217,29758,428616,157016,67.25917571375717,73.23876400081689,60.81337379429934,928.0
Maharashtra,Nagpur,21.196556862745105,79.02166176470584,505,4653570,2384975,2268595,3673808,1959220,1714588,57964,135750,430844,877522,78.94601349071789,82.14845019339826,75.57929026556084,951.0
Maharashtra,Nanded,19.209316983017,77.6829048951049,511,3361292,1730075,1631217,2189425,1255222,934203,7548,43055,591119,230563,65.13641183211693,72.55303960810947,57.27030799703534,943.0
Maharashtra,Nandurbar,21.523175625248147,74.32638757443429,497,1648295,833170,815125,906509,512099,394410,2579,17047,333440,71572,54.99676938897466,61.463926929678216,48.386443796963654,978.0
Maharashtra,Nashik,20.266912871287143,74.03824168316828,516,6107187,3157186,2950001,4345366,2397538,1947828,45039,138887,904661,764271,71.15167752354725,75.93907992750506,66.02804541422189,934.0
Maharashtra,Osmanabad,18.19459456066944,75.99495575313809,525,1657576,861535,796041,1137810,644304,493506,3209,18183,367158,77832,68.64300641418554,74.78558619208738,61.99504799375911,924.0
Maharashtra,Parbhani,19.31032425249168,76.70163338870431,513,1836086,942870,893216,1157814,666291,491523,3982,21196,293480,133759,63.058810970727954,70.66626364185943,55.028458961774085,947.0
Maharashtra,Pune,18.51696171428573,74.12922881632647,521,9429408,4924105,4505303,7171723,3940210,3231513,235018,490260,1165718,2056739,76.05698045943076,80.01880544789358,71.72687386397763,915.0
Maharashtra,Ratnagiri,17.210195070127703,73.25725893866404,528,1615069,761121,853948,1199392,619012,580380,7752,31062,538538,100824,74.26258568519364,81.32898711243021,67.96432569664663,1122.0
Maharashtra,Sangli,17.154930181086502,74.70713822937628,531,2822143,1435728,1386415,2049467,1121550,927917,13212,49056,626872,226801,72.62094798172878,78.11716425395339,66.92923835936571,966.0
Maharashtra,Satara,17.6737908974359,74.18052064102558,527,3003741,1510842,1492899,2225694,1201034,1024660,14093,57423,774522,200949,74.09740054152472,79.49434818465465,68.6355875380719,988.0
Maharashtra,Sindhudurg,16.170948049777163,73.51329008172343,529,849651,417332,432319,666067,348289,317778,3517,15721,295847,44989,78.39301077736623,83.45609730382525,73.50544389675217,1036.0
Maharashtra,Solapur,17.837357937584812,75.42394823609216,526,4317756,2227852,2089904,2910676,1651266,1259410,15145,59296,779929,376302,67.41177593175715,74.11919642776988,60.26161967248257,938.0
Maharashtra,Thane,19.698767747440264,72.79882742564581,517,11060148,5865078,5195070,8227161,4591396,3635765,256170,551643,713994,2904157,74.38563209099914,78.28363066953244,69.98490876927549,886.0
Maharashtra,Wardha,20.80743024390242,78.57259105691062,504,1300774,668385,632389,1019458,552617,466841,4313,16260,268486,120218,78.37318396585418,82.6794437337762,73.82180904474936,946.0
Maharashtra,Washim,20.282282394366213,77.25502394366208,502,1197160,620302,576858,869917,487703,382214,1875,10757,274925,55921,72.66505730228207,78.6234769515494,66.2579005578496,930.0
Maharashtra,Yavatmal,20.04258346738159,78.05326371760479,510,2772348,1419965,1352383,2022574,1115980,906594,6094,29917,629243,168889,72.9552711275785,78.59207797375288,67.03677878234198,952.0
Manipur,Bishnupur,24.50712111801243,93.8246236024845,275,237399,118782,118617,156333,87313,69020,676,3447,34977,21172,65.85242566312411,73.50692865922446,58.1872750111704,999.0
Manipur,Chandel,24.2635812987013,94.09443844155844,280,144182,74579,69603,90302,51053,39249,184,1782,30377,3783,62.630564148090606,68.4549269901715,56.38981078401793,933.0
Manipur,Churachandpur,24.30309718875504,93.38671506024085,274,274143,138820,135323,195935,104013,91922,837,4496,52972,4853,71.4718230996232,74.92652355568362,67.92784670750723,975.0
Manipur,Senapati,25.08465586034914,94.03366234413956,272,479148,247323,231825,264477,148012,116465,256,2170,38008,1826,55.19735029677678,59.84562697363367,50.23832632373557,937.0
Manipur,Tamenglong,24.98312942238265,93.49450740072204,273,140651,72371,68280,85006,47403,37603,125,1362,23982,4119,60.43753688206981,65.49999309115529,55.0717633274751,943.0
Manipur,Thoubal,24.545392553191498,93.97959893617023,276,422168,210845,211323,269304,152617,116687,880,5110,65961,38302,63.79071838699285,72.38350447010838,55.217368672600706,1002.0
Manipur,Ukhrul,25.05900314960629,94.44129566929138,279,183998,94718,89280,129829,70148,59681,276,2437,36084,5806,70.56000608702269,74.05984079055723,66.8469982078853,943.0
Meghalaya,East Garo Hills,25.82728228228228,90.64684924924916,294,317917,161223,156694,192147,102513,89634,288,2368,62698,11518,60.439359958731366,63.58460021212854,57.20321135461472,972.0
Meghalaya,East Khasi Hills,25.303763888888884,91.75922519841272,298,825922,410749,415173,578030,287270,290760,5032,19306,106248,108843,69.98602773627533,69.93808871111068,70.033455932828,1011.0
Meghalaya,Jaintia Hills,25.33959557069844,92.37608160136298,299,395124,196285,198839,187527,87371,100156,510,4333,76546,7171,47.46029094663954,44.51231627480449,50.37040017300429,1013.0
Meghalaya,South Garo Hills,25.240568578553614,90.64560349127176,295,142334,73170,69164,82062,45003,37059,179,1625,35930,3713,57.654530892126964,61.50471504715047,53.58134289514776,945.0
Meghalaya,West Garo Hills,25.495285185185185,90.03709947089942,293,643291,324159,319132,358702,193438,165264,1630,8872,139351,18594,55.76045677617129,59.67380205393032,51.78546808217289,984.0
Meghalaya,West Khasi Hills,25.500889926739926,91.25364542124538,296,383461,193715,189746,230678,117307,113371,149,2462,74832,12299,60.15683472373984,60.55648762357071,59.74882210955699,980.0
Mizoram,Aizawl,23.90781335453101,92.85359459459472,283,400309,199270,201039,340595,169547,171048,4019,21093,20570,80341,85.08302336445097,85.08405680734683,85.08199901511647,1009.0
Mizoram,Champhai,23.54166580976866,93.24221799485862,284,125745,63388,62357,100802,51440,49362,186,2263,18395,12717,80.16382361127678,81.15100649965294,79.16031880943599,984.0
Mizoram,Kolasib,24.2020004347826,92.73470391304348,282,83955,42918,41037,65895,34147,31748,367,1986,9669,12507,78.48847596926926,79.56335337154574,77.36432975120013,956.0
Mizoram,Lawngtlai,22.36102843137253,92.66964156862753,287,117894,60599,57295,62861,36444,26417,162,1329,21993,5273,53.31993146385736,60.139606264129775,46.10699013875556,945.0
Mizoram,Lunglei,23.007717036172675,92.63512555425892,286,161428,82891,78537,121122,64515,56607,482,3725,21479,17315,75.03159303218773,77.83112762543581,72.07685549486229,947.0
Mizoram,Mamit,23.73852942502819,92.4330803833147,281,86364,44828,41536,60191,32977,27214,90,1073,16726,4129,69.69454865453199,73.5633978763273,65.51906779661016,927.0
Mizoram,Saiha,22.35744801061008,93.02827931034489,288,56574,28594,27980,42233,21861,20372,168,1194,7043,5784,74.650899706579,76.45310204938099,72.80914939242315,979.0
Mizoram,Serchhip,23.263864705882344,92.914158496732,285,64937,32851,32086,54476,27598,26878,131,987,7472,8018,83.89054006190617,84.0096191896746,83.76862182883501,977.0
Nagaland,Dimapur,25.814176811594223,93.75074057971014,265,378811,197394,181417,278037,150142,127895,3303,12077,49116,62853,73.39728782955089,76.06208901992969,70.49780340320918,919.0
Nagaland,Kohima,25.60311428571428,93.78600657596373,270,267988,138966,129022,197489,107038,90451,1928,7982,31845,44255,73.69322506977925,77.02459594433171,70.10509835531926,928.0
Nagaland,Mokokchung,26.478911764705888,94.522426006192,262,194622,101092,93530,159494,83479,76015,537,2728,37536,17742,81.95065306080505,82.57725636054288,81.27338821768416,925.0
Nagaland,Mon,26.69207374301676,95.03072988826828,261,250260,131753,118507,119626,67432,52194,178,2844,43607,7415,47.80068728522337,51.18061827814168,44.042967925945305,899.0
Nagaland,Phek,25.63272986577182,94.56814563758392,266,163418,83743,79675,105893,57926,47967,170,1558,38903,7295,64.79885936677722,69.1711546039669,60.203326011923444,951.0
Nagaland,Tuensang,26.21104453280316,94.85809880715708,267,196596,101933,94663,117511,63653,53858,155,2251,40690,9451,59.77283362835459,62.445920359451804,56.89445717967949,929.0
Nagaland,Wokha,26.202611551155112,94.1990815181518,264,166343,84505,81838,128208,67385,60823,198,1757,38499,8170,77.07447863751405,79.74084373705698,74.32121997116255,968.0
Nagaland,Zunheboto,26.028178205128206,94.50026666666668,263,140757,71217,69540,102881,53504,49377,261,2008,31267,6044,73.09121393607423,75.12812951963717,71.00517687661777,976.0
Orissa,Baleshwar,21.48570932311624,87.08085828011933,377,2320529,1185787,1134742,1621232,902359,718873,7370,28289,601154,82440,69.8647592854905,76.09789953844998,63.3512287374575,957.0
Orissa,Bhadrak,20.95262735257214,86.81496204516931,378,1506337,760260,746077,1094140,596269,497871,2637,15609,373862,54244,72.635804604149,78.42961618393709,66.73185207424972,981.0
Orissa,Cuttack,20.407640646029623,85.7776810228802,381,2624470,1352760,1271710,2011469,1103033,908436,15046,40589,579529,210768,76.64286503560719,81.53944528223779,71.43421062978194,940.0
Orissa,Dhenkanal,20.79887159353349,85.53226836027711,383,1192811,612593,580218,829910,464093,365817,1810,10600,315390,36979,69.57598479557952,75.75878274808886,63.048199125156415,947.0
Orissa,Gajapati,19.121080882352945,84.14015091911759,389,577817,282882,294935,262537,153663,108874,635,5523,152095,23050,45.436011747664054,54.32052940802172,36.91457439774866,1043.0
Orissa,Ganjam,19.2632617564534,84.80297710437702,388,3529031,1779218,1749813,2210050,1262652,947398,9049,41059,795476,219918,62.62483950976912,70.96668311584078,54.142814117851444,983.0
Orissa,Jharsuguda,21.827058566978184,83.93581682242987,371,579505,296690,282815,405879,228092,177787,2498,7555,103224,73962,70.03891252016807,76.87889716539149,62.86335590403621,953.0
Orissa,Kalahandi,19.784253092783523,83.1124043814433,395,1576869,787101,789768,802036,484177,317859,1953,12622,456336,38412,50.86256372596583,61.51396072422726,40.247135867748504,1003.0
Orissa,Kandhamal,20.092878624813142,84.02216352765326,390,733110,359945,373165,399786,233900,165886,768,6609,218446,24489,54.53288046814257,64.98215005070219,44.453793898141576,1037.0
Orissa,Kendrapara,20.606319815982264,86.83763247572003,379,1440361,717814,722547,1089265,579970,509295,1628,11836,414749,23494,75.62444414976524,80.79669663729044,70.48607218630761,1007.0
Orissa,Khordha,20.054162322274863,85.52234834123229,386,2251673,1167137,1084536,1749936,957515,792421,35701,75588,331834,356895,77.7171463174271,82.0396405906076,73.0654399669536,929.0
Orissa,Koraput,18.82627794779476,82.81278469846964,398,1379647,678809,700838,568090,340843,227247,3988,17294,381789,78339,41.17647485190052,50.21191528102897,32.425039738142054,1032.0
Orissa,Malkangiri,18.25227930367506,81.98293636363628,399,613192,303624,309568,244706,147001,97705,448,3908,167884,15839,39.906913332202635,48.41547440255052,31.56172472606988,1020.0
Orissa,Mayurbhanj,21.897621545157754,86.4030408052231,376,2519738,1256213,1263525,1369397,794171,575226,2950,17999,689110,64479,54.34680113567363,63.21945402571061,45.52549415326171,1006.0
Orissa,Nayagarh,20.192895622119817,85.05614700460825,385,962789,502636,460153,688362,392333,296029,1163,8278,261646,26688,71.49666230087797,78.05509354682117,64.33273280843545,915.0
Orissa,Nuapada,20.471309512195116,82.59152536585364,394,610382,301962,308420,299383,180903,118480,757,4221,197258,11869,49.048464731921975,59.909193872076614,38.41514817456715,1021.0
Orissa,Puri,19.83509174603177,85.86698989898981,387,1698730,865380,833350,1291939,704857,587082,3416,16006,402014,72210,76.05322799974098,81.45057662529756,70.44843103137937,963.0
Orissa,Rayagada,19.292840020060204,83.45860120361095,396,967911,471960,495951,407735,241959,165776,1553,9166,237343,49205,42.125257384201646,51.266844647851514,33.42588279890554,1051.0
Orissa,Sambalpur,21.515752380952385,84.34958483245157,372,1041099,526877,514222,703691,393192,310499,5231,14521,220697,94798,67.59117048426711,74.62690533084572,60.38228624990762,976.0
Orissa,Sundargarh,22.06354819277107,84.50524819277099,374,2093437,1061147,1032290,1342322,750147,592175,12787,35024,387911,230151,64.12048702683673,70.69209072824029,57.36517838979357,973.0
Puducherry,Karaikal,10.876161726078813,79.82369793621002,637,200222,97809,102413,154916,79903,75013,1868,4870,35618,33715,77.3721169501853,81.69289124722674,73.24558405671155,1047.0
Puducherry,Mahe,12.006420793787758,75.28275021570326,636,41816,19143,22673,36470,16610,19860,574,1484,0,12110,87.21541993495313,86.76800919396123,87.59317249592026,1184.0
Puducherry,Yanam,16.707695652173904,82.26187304347832,634,55626,27301,28325,39274,19919,19355,207,597,0,15519,70.60367454068242,72.96069741035127,68.33186231244484,1038.0
Punjab,Amritsar,31.548679820627772,74.79883856502238,49,2490656,1318408,1172248,1684770,932981,751789,29961,63864,275477,385476,67.6436248120977,70.76572654292146,64.13224846619487,889.0
Punjab,Bathinda,30.190524611973352,75.05685898004438,46,1388525,743197,645328,844868,488261,356607,11284,32253,218159,137563,60.84643776669487,65.69738575370998,55.25980586616418,868.0
Punjab,Faridkot,30.591187250996025,74.79751553784862,45,617508,326671,290837,381285,215767,165518,4348,12276,99946,58917,61.745758759400694,66.05024627224333,56.9109157363059,890.0
Punjab,Fatehgarh Sahib,30.64290947368421,76.36208394736842,40,600163,320795,279368,426033,238696,187337,5138,14294,117559,57337,70.98621541147988,74.40764351065322,67.05742962687208,871.0
Punjab,Firozpur,30.63407535211269,74.40245732394365,43,2029074,1071637,957437,1227511,707070,520441,10042,31070,348522,153868,60.49611793359927,65.98036461973598,54.35772797583549,893.0
Punjab,Gurdaspur,32.04283371212125,75.3204064393939,35,2298323,1212617,1085706,1634719,907660,727059,14428,38445,420860,185488,71.12659969899792,74.851333933138,66.96647158623053,895.0
Punjab,Hoshiarpur,31.55157169811319,75.8469857442349,38,1586625,809057,777568,1199699,637927,561772,13747,34328,422673,128592,75.61326715512487,78.84821464989487,72.24731470430882,961.0
Punjab,Jalandhar,31.250336907216507,75.54400350515463,37,2193590,1145211,1048379,1622537,882581,739956,39082,79134,330339,377791,73.96719532820627,77.0671081573614,70.58096356374936,915.0
Punjab,Kapurthala,31.336592638036837,75.47641165644177,36,815168,426311,388857,576567,316254,260313,9732,23145,165433,95770,70.72983728507498,74.18387046076691,66.94311790709695,912.0
Punjab,Ludhiana,30.76596397379912,75.83110851528383,41,3498739,1867816,1630923,2560225,1428348,1131877,58589,123400,395032,641789,73.17564985556224,76.4715582262921,69.4010078955291,873.0
Punjab,Mansa,29.919547714285724,75.4304922857143,47,769751,408732,361019,423560,244037,179523,2673,10085,145603,50786,55.025586196055606,59.70587083957214,49.72674568374518,883.0
Punjab,Moga,30.756540067340065,75.1600845117845,42,995746,525920,469826,627889,348549,279340,7897,21662,214295,74144,63.057145095235136,66.27414815941589,59.456053943374776,893.0
Punjab,Muktsar,30.31243303303303,74.5518747747748,44,901896,475622,426274,524848,300401,224447,4571,14077,149507,74650,58.19384940170485,63.159609942349185,52.65322304433299,896.0
Punjab,Patiala,30.214540380693364,76.27505893949697,48,1895686,1002522,893164,1266791,711052,555739,24274,55105,299279,218090,66.82493830729351,70.92632381134779,62.22138375483114,891.0
Punjab,Rupnagar,30.910937330754347,76.53743500967126,51,684627,357485,327142,502731,278534,224197,6600,17542,148162,60537,73.43137211941685,77.91487754730969,68.5320136209964,915.0
Punjab,Sangrur,30.185045204336895,75.89437014178496,53,1655169,878029,777140,1002077,570413,431664,10736,30955,292156,156788,60.54227695177955,64.96516629860744,55.54520421030959,885.0
Rajasthan,Ajmer,26.199300378787903,74.6990419191919,119,2583052,1324085,1258967,1526673,926268,600405,13499,41732,409335,274919,59.10345591184382,69.95532764135233,47.690288943236794,951.0
Rajasthan,Alwar,27.55271738035265,76.65359630562563,104,3674179,1939026,1735153,2182476,1359829,822647,9750,45770,782294,212967,59.40037216477477,70.12948769124291,47.41063180019284,895.0
Rajasthan,Banswara,23.453642032967014,74.44246868131869,125,1797485,907754,889731,829343,513854,315489,2324,15062,390437,39407,46.13907765572453,56.60718652850883,35.45891960603823,980.0
Rajasthan,Baran,24.98023243243244,76.86210651828291,128,1222755,633945,588810,693307,432607,260700,1363,9491,249184,69804,56.70040196114512,68.24046250069013,44.2757425994803,929.0
Rajasthan,Barmer,25.77070908045978,71.50297126436782,115,2603751,1369022,1234729,1188322,783461,404861,2766,37730,542825,55980,45.63884949060029,57.22778742781344,32.78946230306407,902.0
Rajasthan,Bharatpur,27.32411858037578,77.21752077244258,105,2548462,1355726,1192736,1480869,943910,536959,4179,26106,479437,129697,58.108341423179944,69.62395056228175,45.01909894561747,880.0
Rajasthan,Bhilwara,25.45119767759564,74.63947595628417,122,2408523,1220736,1187787,1256126,777582,478544,6207,24014,530015,145865,52.15337366510513,63.69780198175526,40.28870496141143,973.0
Rajasthan,Bikaner,28.12489068322981,73.26943322981371,101,2363937,1240801,1123136,1278801,782399,496402,7607,29531,335754,196179,54.09623860534354,63.0559614313657,44.197853154025864,905.0
Rajasthan,Bundi,25.48580716049379,75.79984074074079,121,1110906,577160,533746,585044,371705,213339,1392,7705,239836,63452,52.66368171564471,64.40241874003743,39.970135607573646,925.0
Rajasthan,Chittaurgarh,24.631623761665463,74.80010997846382,126,1544338,783171,761167,821825,514851,306974,4941,16560,366780,88873,53.215358295917085,65.73928299183703,40.329388951439036,972.0
Rajasthan,Churu,28.29330375536484,74.65846427038629,102,2039547,1051446,988101,1149269,696729,452540,2577,15259,344897,148996,56.34922852966859,66.26388801707364,45.79896184701766,940.0
Rajasthan,Dausa,26.91234817629181,76.57342097264443,109,1634409,857787,776622,938051,596935,341116,1719,14539,361084,59610,57.39389589753849,69.59011969171834,43.92304106759788,905.0
Rajasthan,Dhaulpur,26.72397054945053,77.74476219780222,106,1206516,653647,552869,683098,435721,247377,1330,9504,214670,58626,56.617400846735556,66.65998620050271,44.74423416758762,846.0
Rajasthan,Dungarpur,23.75104807692308,73.84765641025645,124,1388552,696532,692020,681591,415820,265771,1477,11742,322816,31547,49.086458411352254,59.69862116887666,38.405103898731255,994.0
Rajasthan,Ganganagar,29.256785412667963,73.56192303262948,99,1969168,1043340,925828,1193343,710908,482435,6295,24901,397697,164897,60.6013808877658,68.1377115801177,52.108490994007525,887.0
Rajasthan,Hanumangarh,29.1813351791531,74.74632573289902,100,1774692,931184,843508,1034136,624281,409855,3360,16217,389059,108694,58.271294399253506,67.04163731335589,48.589343550979955,906.0
Rajasthan,Jaipur,27.033459290187885,75.77117286012533,110,6626178,3468507,3157671,4300965,2554793,1746172,76565,182350,754841,977838,64.90868491610095,73.65685005104503,55.29936462665046,910.0
Rajasthan,Jaisalmer,26.86900838548185,71.18371877346682,114,669919,361708,308211,308653,210415,98238,754,7416,159117,30830,46.07318198170226,58.17261437402546,31.873619046692035,852.0
Rajasthan,Jalor,25.07578093797277,72.18647261724662,116,1828730,936634,892096,829582,543923,285659,1585,12794,419216,48202,45.36383173021715,58.07209646457421,32.02110535189038,952.0
Rajasthan,Jhalawar,24.24725541474657,76.11242891705065,129,1411129,725143,685986,739792,466815,272977,1750,9403,298624,63763,52.42554011716859,64.37557833420443,39.793377707416774,946.0
Rajasthan,Jhunjhunun,28.13517401247401,75.52840893970894,103,2137045,1095896,1041149,1370360,815834,554526,4828,24178,500452,150357,64.12405915645202,74.44447283318854,53.26096456895218,950.0
Rajasthan,Jodhpur,26.678460838536967,73.00450847457628,113,3687165,1923928,1763237,2031532,1265753,765779,19335,54808,584215,307442,55.09739867893083,65.79003995991533,43.430293261767986,916.0
Rajasthan,Karauli,26.51901555555556,76.96081818181815,107,1458248,783639,674609,805849,531904,273945,1059,13045,305047,59308,55.26145072717398,67.87615215679669,40.60796698532039,861.0
Rajasthan,Kota,25.175718080000014,76.18618928000001,127,1951014,1021161,929853,1298345,765396,532949,12843,36297,203454,311735,66.5471903328218,74.95350880027733,57.31540361756105,911.0
Rajasthan,Nagaur,27.07862016048146,74.14215667001012,112,3307743,1696325,1611418,1758624,1102750,655874,4449,35328,675712,166489,53.16688751211929,65.00817944674517,40.7016677237067,950.0
Rajasthan,Pali,25.80490393541874,73.55285640766907,118,2037573,1025422,1012151,1085693,667381,418312,4043,19270,512909,139808,53.28363695435697,65.08354609126779,41.32901118508997,987.0
Rajasthan,Rajsamand,25.24894767441859,73.96570215946844,123,1156597,581339,575258,619139,383334,235805,1989,9222,304622,61054,53.53109164211908,65.93983888918514,40.99117265644285,990.0
Rajasthan,Sawai Madhopur,26.251081180223288,76.4219283891548,108,1335551,704031,631520,741748,486184,255564,1887,14310,282057,71264,55.53872521528568,69.0571864023033,40.46807702052192,897.0
Rajasthan,Sikar,27.64644058641976,75.29317422839503,111,2677333,1374990,1302343,1652117,995275,656842,5647,28382,527560,178274,61.7075649536311,72.38416279391123,50.4354075692809,947.0
Rajasthan,Sirohi,24.7976905263158,72.75309131578943,117,1036346,534231,502115,476806,309900,166906,2146,10297,238535,69639,46.008379440843115,58.00861425113856,33.24059229459387,940.0
Rajasthan,Tonk,26.153935071707927,75.79192216427637,120,1421326,728136,693190,749659,478329,271330,1908,12482,298911,81755,52.743635168849366,65.69226078644648,39.14222651798208,952.0
Rajasthan,Udaipur,24.44076752136749,73.84029839743584,130,3068420,1566801,1501619,1582629,973444,609185,14211,48517,665449,182769,51.57797824287418,62.1293961390119,40.568546348974,958.0
Sikkim,East,27.29600352941175,88.74908392156858,93,1709346,907500,801846,1352998,748382,604616,80037,127465,1086,461132,79.15296259505097,82.46633608815426,75.40300756005517,884.0
Tamil Nadu,Ariyalur,11.190514836795256,79.22249643916912,616,754894,374703,380191,480604,269582,211022,1749,8371,223955,30322,63.66509735141622,71.94551418056434,55.504207095907056,1015.0
Tamil Nadu,Chennai,13.058098905608748,80.28139151846806,603,4646732,2335844,2310888,3776276,1968079,1808197,217368,355838,0,1314125,81.267350903818,84.25558384892142,78.24684709946999,989.0
Tamil Nadu,Coimbatore,10.871376995940452,77.07619012178621,632,3458045,1729297,1728748,2635907,1394790,1241117,63273,149920,284795,884957,76.22535276435094,80.65647485654576,71.79282347687459,1000.0
Tamil Nadu,Cuddalore,11.57587300613498,79.63002365371497,617,2605914,1311697,1294217,1815281,1000322,814959,15396,50938,497429,260780,69.66005017817164,76.26166713806619,62.96927022284516,987.0
Tamil Nadu,Dharmapuri,12.300141200000006,78.11509813333339,630,1506843,774303,732540,917709,527599,390110,3651,18927,396819,91107,60.902761601573616,68.13857107618078,53.25442979222977,946.0
Tamil Nadu,Dindigul,10.377801390820574,77.78011279554937,612,2159775,1080938,1078837,1481834,816180,665654,9155,38677,443818,269724,68.61057286059891,75.50664330424132,61.70107254385972,998.0
Tamil Nadu,Erode,11.267012155963302,77.42034334862392,610,2251744,1129868,1121876,1492662,828300,664362,18604,58861,411286,432398,66.28915187516876,73.30944853735126,59.21884415033391,993.0
Tamil Nadu,Kancheepuram,12.496424756511884,80.08820360135913,604,3998252,2012958,1985294,3013382,1611461,1401921,100322,200738,438799,774705,75.36748559120335,80.05437768696615,70.61528418460942,986.0
Tamil Nadu,Kanniyakumari,8.183466300191206,77.32053064053538,629,1870374,926345,944029,1548738,780541,768197,15673,52943,104253,493788,82.8036531731087,84.26029179193497,81.37430100134637,1019.0
Tamil Nadu,Karur,10.79532776617955,78.08749686847604,613,1064493,528184,536309,727044,401726,325318,4915,17995,212241,152420,68.29955669036809,76.05796464868303,60.658687435787954,1015.0
Tamil Nadu,Madurai,9.904313833333331,78.01366033333332,623,3038252,1526475,1511777,2273430,1223810,1049620,34097,95311,417718,592723,74.82690705050142,80.17229237295075,69.42955210986806,990.0
Tamil Nadu,Nagapattinam,10.789468161718286,79.79437299431483,618,1616450,798127,818323,1213008,640916,572092,5585,19692,399016,118724,75.0414797859507,80.3025082474343,69.9102921462552,1025.0
Tamil Nadu,Namakkal,11.33766638477801,78.14624841437633,609,1726601,869280,857321,1176131,653312,522819,8960,31581,370357,257127,68.11828557958671,75.15553101417265,60.98287572566168,986.0
Tamil Nadu,Perambalur,11.260137758112096,78.86034011799416,615,565223,282157,283066,375823,208011,167812,1507,7745,155413,33179,66.49110174214425,73.72172230354023,59.28370062105658,1003.0
Tamil Nadu,Pudukkottai,10.130514816433578,79.05444484265728,621,1618345,803188,815157,1110545,608776,501769,4494,18272,399712,104229,68.62226533897284,75.79495709597255,61.55489065296624,1015.0
Tamil Nadu,Ramanathapuram,9.31286995153476,78.99185362412462,626,1353445,682658,670787,978946,536487,442459,5172,22379,290478,126761,72.32994321897085,78.58796058934342,65.96117694588595,983.0
Tamil Nadu,Salem,11.629324202127655,78.2478257978723,608,3482056,1781571,1700485,2285562,1285107,1000455,20660,63867,572813,597539,65.63828956225862,72.13335870419984,58.833509263533635,954.0
Tamil Nadu,Sivaganga,9.960306580645158,78.56535729032255,622,1339101,668672,670429,959744,526304,433440,5773,24456,309224,143193,71.67077016595462,78.70884379785605,64.65114128416283,1003.0
Tamil Nadu,Thanjavur,10.387692255892237,79.3194869107745,620,2405890,1182416,1223474,1790998,944264,846734,13495,42912,479070,274302,74.44222304427883,79.85886523863006,69.20735544850156,1035.0
Tamil Nadu,Theni,9.924066666666668,77.43458833333332,624,1245899,625683,620216,870080,479403,390677,4667,18830,189328,221295,69.83551636208072,76.62074884566145,62.99047428637765,991.0
Tamil Nadu,Thiruvallur,13.275858101752885,80.19724702864492,602,3728104,1876062,1852042,2791721,1495711,1296010,75634,174279,387237,732196,74.88313094269903,79.72609647229143,69.97735472521681,987.0
Tamil Nadu,Thiruvarur,10.368927409395978,79.60322893959727,619,1264277,626693,637584,946471,503085,443386,4416,15535,321331,86848,74.86262899665184,80.27614797037785,69.54158197194408,1017.0
Tamil Nadu,Tiruvannamalai,12.419318947368414,79.23265631578953,606,2464875,1235889,1228986,1626813,909803,717010,6445,27529,563102,147061,65.9998174349612,73.6152680378254,58.34159217436162,994.0
Tamil Nadu,Vellore,12.784882632293078,79.02643283582084,605,3936331,1961688,1974643,2773928,1504355,1269573,20623,69912,653499,486801,70.46988680575896,76.68676160531135,64.2937989297306,1007.0
Tamil Nadu,Virudhunagar,9.468872195892564,77.87641469194315,625,1942288,967709,974579,1398788,760375,638413,10219,37357,363782,370942,72.01753807880192,78.57475749424671,65.50654179907427,1007.0
Tripura,Dhalai,23.781360477941163,91.94654283088232,291,378230,194544,183686,276217,151643,124574,273,5067,89457,14071,73.0288448827433,77.94791923677934,67.81899545964308,944.0
Tripura,North Tripura,24.121739755351683,92.17842538226292,292,693947,352860,341087,520402,275646,244756,997,10310,150437,42184,74.99160598720074,78.11766706342459,71.75764541011532,967.0
Tripura,South Tripura,23.211874098057383,91.6065807585568,290,876001,447544,428457,646810,351082,295728,948,10393,219171,44906,73.83667370242728,78.44636505014032,69.0216287748829,957.0
Tripura,West Tripura,23.780166241299337,91.41310788863107,289,1725739,879428,846311,1361354,722998,638356,6394,36186,289621,217016,78.88527755355823,82.21230163242471,75.42806367871859,962.0
Uttar Pradesh,Agra,26.99512974910393,78.05278291517321,146,4418797,2364953,2053844,2680510,1614594,1065916,27183,82012,496971,406852,60.66153299189803,68.27171618209749,51.89858626068972,868.0
Uttar Pradesh,Aligarh,27.93748576850093,78.00146831119557,143,3673889,1951996,1721893,2092567,1283380,809187,13634,58336,582117,275942,56.957817723943215,65.74706095709213,46.99403505328147,882.0
Uttar Pradesh,Allahabad,25.392038662316445,82.05172446982063,175,5954391,3131807,2822584,3665727,2199340,1466387,24122,85491,983266,265304,61.56342437035123,70.22591111138074,51.951934822843185,901.0
Uttar Pradesh,Ambedkar Nagar,26.39119025974028,82.68282142857147,178,2397888,1212410,1185478,1486939,846676,640263,2509,27308,501559,65031,62.010360784156724,69.8341320180467,54.008847064222195,978.0
Uttar Pradesh,Auraiya,26.66892394014961,79.42637057356607,162,1379545,740040,639505,930836,546198,384638,2404,14279,255836,58438,67.47413096346983,73.80655099724339,60.146206831846506,864.0
Uttar Pradesh,Azamgarh,26.008290954773837,83.01220251256285,191,4613913,2285004,2328909,2771917,1559414,1212503,6652,47324,891024,80434,60.077357332051996,68.24556981081871,52.06313342427721,1019.0
Uttar Pradesh,Baghpat,29.045793499999988,77.30266300000001,139,1303048,700070,602978,797970,489858,308112,2989,19999,246055,69991,61.23872643218055,69.97271701401289,51.098381698834785,861.0
Uttar Pradesh,Bahraich,27.691776300578027,81.46779783237004,180,3487731,1843884,1643847,1398368,878285,520083,2681,35463,698520,61742,40.09391779354543,47.632334788956356,31.638163405718416,892.0
Uttar Pradesh,Ballia,25.86075638297873,84.03651978723408,193,3239774,1672902,1566872,1963590,1160960,802630,4672,42969,564927,64454,60.608857284489595,69.39796832091778,51.22498838450109,937.0
Uttar Pradesh,Balrampur,27.449076537911324,82.47158326180256,182,2148665,1114721,1033944,868357,544943,323414,1551,15510,410070,35768,40.413791819571685,48.88604413122207,31.27964377180969,928.0
Uttar Pradesh,Banda,25.351885902503284,80.52487391304344,170,1799410,965876,833534,1002937,630626,372311,1655,18612,378056,67569,55.73699156945888,65.29057560183709,44.66656429131865,863.0
Uttar Pradesh,Bara Banki,26.922777025232424,81.35762350597606,176,3260699,1707073,1553626,1692458,1010518,681940,3159,26293,635840,79068,51.90476029832867,59.19594534035745,43.893446685367,910.0
Uttar Pradesh,Bareilly,28.51101940789474,79.43187072368416,150,4448359,2357665,2090694,2191759,1342697,849062,15164,56575,631613,362798,49.271180675840235,56.950287678699056,40.61149072987247,887.0
Uttar Pradesh,Basti,26.833880454545447,82.69790590909092,185,2464464,1255272,1209192,1393783,819719,574064,3423,30244,513960,31065,56.55521849781535,65.30210185521544,47.47500810458554,963.0
Uttar Pradesh,Bijnor,29.313974259681096,78.45098815489754,134,3682713,1921215,1761498,2135393,1241471,893922,7303,37341,683875,224648,57.984236078130444,64.61905617018398,50.747829404291124,917.0
Uttar Pradesh,Bulandshahr,28.34875862068968,78.01082758620684,142,3499171,1845260,1653911,2031656,1253314,778342,7865,38225,658449,221628,58.0610664640282,67.92072661847111,47.06069431789256,896.0
Uttar Pradesh,Chandauli,25.1180859611231,83.25307062634984,196,1952756,1017905,934851,1174606,699454,475152,3492,20762,344937,50822,60.15119144429719,68.71505690609635,50.82649534524754,918.0
Uttar Pradesh,Chitrakoot,25.159924623803,81.07666087551297,171,991730,527721,464009,531072,330339,200733,827,9437,207237,23558,53.55005898782935,62.59728151807489,43.26058330765136,879.0
Uttar Pradesh,Deoria,26.42218856548857,83.8244070686071,190,3100946,1537436,1563510,1875239,1079288,795951,4469,36068,597778,67928,60.47312658782191,70.20051566374144,50.9079570965328,1017.0
Uttar Pradesh,Etah,27.591155309734443,78.70021858407083,201,1774480,947339,827141,1055202,647042,408160,2635,19712,334246,67752,59.4654208556873,68.30099890324371,49.3458793603509,873.0
Uttar Pradesh,Etawah,26.78817670157068,79.07621806282728,161,1581810,845856,735954,1062003,623583,438420,2964,21506,265643,85483,67.13846795759288,73.72212291453864,59.5716580112344,870.0
Uttar Pradesh,Faizabad,26.60589185185181,82.00783530864202,177,2470996,1259628,1211368,1450901,838339,612562,4746,28625,510378,79288,58.71725409510983,66.55449069090238,50.56778782335343,962.0
Uttar Pradesh,Farrukhabad,27.45063297872342,79.4406284574468,159,1885204,1006240,878964,1092677,654827,437850,2624,18733,316647,94843,57.96067693469779,65.0766218794721,49.81432686662935,874.0
Uttar Pradesh,Fatehpur,25.8374362030905,80.85416203090509,172,2632733,1384722,1248011,1512166,911003,601163,3385,33501,558807,77733,57.437119525603244,65.78959531227207,48.16968760692013,901.0
Uttar Pradesh,Firozabad,27.20963993055552,78.42660624999998,147,2498156,1332046,1166110,1521806,912314,609492,5834,31797,349747,185621,60.91717250644075,68.48967678293393,52.26711030691787,875.0
Uttar Pradesh,Gautam Buddha Nagar,28.393311038961038,77.52462467532465,141,1648115,890214,757901,1122947,666065,456882,53181,87188,170835,338935,68.13523328165813,74.82077343200623,60.282543498425255,851.0
Uttar Pradesh,Ghaziabad,28.74997308584685,77.67441879350343,140,4681645,2488834,2192811,3123264,1811397,1311867,78116,179552,355407,836316,66.71296093573946,72.78094882985366,59.82581262133399,881.0
Uttar Pradesh,Ghazipur,25.624724775583484,83.5360854578097,195,3620268,1855075,1765193,2197549,1293553,903996,5309,50180,700173,61467,60.70127957377741,69.7304960715874,51.21230369710281,952.0
Uttar Pradesh,Gonda,27.157215552099505,82.0226888024882,183,3433919,1787146,1646773,1679994,1034181,645813,4313,31811,673578,52794,48.92351858037421,57.86773996080902,39.21688052937472,921.0
Uttar Pradesh,Gorakhpur,26.63315886792452,83.3549560377358,188,4440895,2277777,2163118,2700328,1593890,1106438,14597,65360,761958,189170,60.805941144746726,69.97568243072084,51.150145299516716,950.0
Uttar Pradesh,Hardoi,27.337409090909137,80.26411767676768,155,4092845,2191442,1901403,2221601,1374587,847014,3845,32065,786613,121064,54.28011566526463,62.72522841124702,44.54678992302,868.0
Uttar Pradesh,Jalaun,26.067954587155988,79.36686911314993,165,1689974,906092,783882,1075196,653430,421766,2217,18615,304856,91565,63.622043889432625,72.11519360064982,53.80478184216501,865.0
Uttar Pradesh,Jaunpur,25.70141280913127,82.54315351934063,194,4494204,2220465,2273739,2731677,1565394,1166283,8002,52398,926088,80582,60.782220833767234,70.49847667042714,51.293618132951934,1024.0
Uttar Pradesh,Jhansi,25.45581535234902,78.89954580536917,166,1998603,1057436,941167,1304513,783705,520808,8517,40774,309592,195321,65.27124196251081,74.11370522660474,55.33640682259365,890.0
Uttar Pradesh,Jyotiba Phule Nagar,28.870498984771597,78.39009365482241,137,1840221,963449,876772,983110,600541,382569,2825,18303,335888,115486,53.42347468048675,62.33241199067102,43.633806736528996,910.0
Uttar Pradesh,Kannauj,26.993988617886185,79.64437940379408,160,1656616,881776,774840,1017087,603596,413491,2488,18082,299785,65985,61.3954591770211,68.45230534738981,53.36469464663672,879.0
Uttar Pradesh,Kanpur Dehat,26.43047641196011,79.98710083056478,163,1796184,963255,832929,1170243,692964,477279,2682,25354,363933,41323,65.15162143744739,71.93982901723842,57.30128258230893,865.0
Uttar Pradesh,Kaushambi,25.53587532051282,81.41811282051287,174,1599596,838485,761111,813424,507279,306145,1503,15029,349856,30764,50.851840089622634,60.49947226247339,40.22343652896884,908.0
Uttar Pradesh,Kushinagar,26.892530675909864,83.92261542461007,189,3564544,1818055,1746489,1954820,1183722,771098,3486,35931,742324,42775,54.84067527291009,65.10925137028308,44.15132302579632,961.0
Uttar Pradesh,Lalitpur,24.58877161016945,78.60082330508473,167,1221592,641011,580581,641191,397586,243605,1079,9906,258013,43819,52.48814661523651,62.02483264717766,41.95883089525837,906.0
Uttar Pradesh,Lucknow,26.838233589251463,80.89706026871404,157,4589838,2394476,2195362,3127260,1742440,1384820,68506,152257,344155,717566,68.13443088841044,72.76915700971736,63.07934636747835,917.0
Uttar Pradesh,Mahoba,25.34529670138888,79.67863003472216,169,875958,466358,409600,488106,302283,185823,1316,11298,198298,48525,55.72253464207188,64.81780091689218,45.366943359375,878.0
Uttar Pradesh,Mainpuri,27.17386862302482,79.03501851015807,148,1868529,993377,875152,1203885,712110,491775,2642,24451,338475,72783,64.42955929503904,71.68577488707712,56.19309559939302,881.0
Uttar Pradesh,Mathura,27.59390432801821,77.62153416856502,145,2547184,1367125,1180059,1507746,943346,564400,8726,37596,407488,177802,59.19266138606398,69.00217609947883,47.82811706872284,863.0
Uttar Pradesh,Mau,26.01082203791469,83.50582654028433,192,2205968,1114709,1091259,1363044,773082,589962,2656,26716,352207,99321,61.788928941852284,69.35280867024488,54.062509450093884,979.0
Uttar Pradesh,Meerut,29.02957625698323,77.80611005586593,138,3443689,1825743,1617946,2141488,1254520,886968,23717,69473,381520,422303,62.18587102377712,68.71284731750306,54.82061824065821,886.0
Uttar Pradesh,Mirzapur,25.10207959183675,82.60126628571429,199,2496970,1312302,1184668,1428683,865837,562846,4447,24518,465152,77963,57.216666599919094,65.9784866593208,47.510863803192116,903.0
Uttar Pradesh,Moradabad,28.851770406189537,78.73580193423597,135,4772006,2503186,2268820,2263848,1357435,906413,11690,61846,692398,355518,47.44017505426439,54.22829146535655,39.950855510794156,906.0
Uttar Pradesh,Muzaffarnagar,29.470507977736563,77.64017847866423,133,4143512,2193434,1950078,2417339,1448528,968811,10077,56149,673746,296104,58.34034027173084,66.03927904828683,49.680628159489004,889.0
Uttar Pradesh,Pilibhit,28.52024175035868,79.90103974175037,151,2031007,1072002,959005,1061095,654290,406805,2870,18097,371752,89638,52.24477315932441,61.034401055221906,42.419486863989235,895.0
Uttar Pradesh,Pratapgarh,25.864842731707316,81.93530048780492,131,867848,437744,430104,401515,250122,151393,716,5961,209813,24269,46.26559028770015,57.13887568990095,35.199161133121294,983.0
Uttar Pradesh,Pratapgarh,25.864842731707316,81.93530048780492,173,3209141,1606085,1603056,1931559,1121381,810178,5149,34400,711085,41701,60.18928429757371,69.82077536369495,50.53959437474423,998.0
Uttar Pradesh,Rae Bareli,26.253902840059787,81.22260463378181,158,3405559,1752542,1653017,1965843,1165965,799878,5184,34788,705025,73393,57.72453215463306,66.52993195027565,48.38897603593914,943.0
Uttar Pradesh,Rampur,28.83244727272725,79.10977333333337,136,2335819,1223889,1111930,1043666,630408,413258,3847,25960,396775,143217,44.68094488485623,51.50859269100384,37.165828784186054,909.0
Uttar Pradesh,Saharanpur,30.03381165217392,77.59905147826095,132,3466382,1834106,1632276,2077108,1220114,856994,9699,38816,605082,284156,59.92149739988264,66.52363603848414,52.503008069713694,890.0
Uttar Pradesh,Sant Kabir Nagar,26.791596516393444,83.0387764344262,186,1715183,869656,845527,954949,567098,387851,2031,19729,324972,27179,55.67621647369406,65.2094621321534,45.87091837398451,972.0
Uttar Pradesh,Shahjahanpur,27.991389350649328,79.8302275324675,152,3006538,1606403,1400135,1490930,915142,575788,3889,27533,520289,134714,49.589594410581206,56.96839460583677,41.12374878136751,872.0
Uttar Pradesh,Sitapur,27.501995963091108,80.85288881199547,154,4483992,2375264,2108728,2283733,1397702,886031,3874,34609,827583,111319,50.93080005495103,58.844069543427594,42.0173203940954,888.0
Uttar Pradesh,Sonbhadra,24.46693268858798,83.06816324951639,200,1862559,971344,891215,985708,601988,383720,5149,25220,337048,91040,52.92224300008751,61.974748389859826,43.055828279371426,918.0
Uttar Pradesh,Sultanpur,26.2846386419753,82.05710456790123,179,3797117,1914586,1882531,2239902,1300248,939654,5956,44008,839737,49891,58.9895439092343,67.91274980596327,49.91439715999365,983.0
Uttar Pradesh,Unnao,26.63163990895297,80.636773292868,156,3108367,1630087,1478280,1773584,1053063,720521,3476,28719,596317,121039,57.05838467594078,64.60164396133457,48.74049571123197,907.0
Uttar Pradesh,Varanasi,25.36057088888889,82.82529666666672,197,3676841,1921857,1754984,2403903,1389116,1014787,19214,57583,438935,316129,65.37957447711229,72.27988346687604,57.823148245226164,913.0
Uttaranchal,Almora,29.683532133676103,79.50165064267351,64,622506,291081,331425,436497,231604,204893,1830,9858,260056,21082,70.11932415109253,79.56685596105551,61.82182997661613,1139.0
Uttaranchal,Bageshwar,29.98703393393397,79.83954354354357,63,259898,124326,135572,179483,97546,81937,435,3595,96031,3880,69.0590154599112,78.45985554107749,60.43799604638126,1090.0
Uttaranchal,Chamoli,30.58338611464965,79.56281095541402,57,391605,193991,197614,280556,155395,125161,899,5582,163434,22906,71.6425990475096,80.10423163961214,63.33609966905179,1019.0
Uttaranchal,Champawat,29.29142393939393,80.07720212121217,65,259648,131125,128523,177726,102015,75711,548,3159,85202,12839,68.44882302193739,77.7998093422307,58.908522210032444,980.0
Uttaranchal,Pithoragarh,30.14720631868129,80.34229230769236,62,483439,239306,244133,345550,189623,155927,1344,7932,183687,26256,71.47747699296086,79.23871528503255,63.86969397828233,1020.0
Uttaranchal,Tehri Garhwal,30.463700918635173,78.48783792650917,59,618931,297986,320945,407994,227406,180588,1366,7831,227059,27177,65.91914122898999,76.31432349170767,56.26758478867095,1077.0
Uttaranchal,Udham Singh Nagar,29.02779577677222,79.45629004524895,67,1648902,858783,790119,1037839,598525,439314,7883,28053,269406,145253,62.94121785284996,69.6945561335052,55.60099174934409,920.0
Uttaranchal,Uttarkashi,30.968958552036234,78.56880615384617,56,330086,168597,161489,215126,128237,86889,602,4104,112148,9061,65.17271256581618,76.06125850400659,53.80490312033637,958.0
West Bengal,Bankura,23.081280892857155,87.12640053571437,339,3596674,1838095,1758579,2232992,1299337,933655,4273,34128,900515,90885,62.08491511880143,70.68932780949842,53.09144485405546,957.0
West Bengal,Barddhaman,23.444453888888884,87.8150581111111,335,7717563,3966889,3750674,5247208,2918040,2329168,32323,141387,1364868,862368,67.99047834141425,73.55991054955156,62.099985229321454,945.0
West Bengal,Birbhum,24.06389342723,87.65153089201888,334,3502404,1790920,1711484,2158447,1201481,956966,5210,39636,831044,134565,61.62758493880204,67.08736291961674,55.9143994334741,956.0
West Bengal,Dakshin Dinajpur,25.342094363021435,88.69821679819614,331,1676276,857199,819077,1083685,596474,487211,2518,24318,390949,70077,64.64836339600399,69.58407557638307,59.48293017628379,956.0
West Bengal,Darjiling,26.839619571045585,88.33145067024122,327,1846823,937259,909564,1315585,717673,597912,10943,38065,303284,215675,71.23503443481049,76.5714706393857,65.73611092787314,970.0
West Bengal,Haora,22.401674174428507,87.99421176968654,341,4850029,2500819,2349210,3605206,1942824,1662382,30751,99261,483384,869313,74.33369986035136,77.68750957186425,70.76344813788465,939.0
West Bengal,Hugli,22.87929264705881,88.00010264705891,338,5519145,2814653,2704492,4078388,2211777,1866611,31725,118459,992085,647953,73.89528631699294,78.58080552025419,69.0189137183619,961.0
West Bengal,Jalpaiguri,26.62642031250004,89.04154375000003,328,3872846,1983064,1889782,2498780,1396622,1102158,9322,48818,798378,319426,64.5205102397565,70.42747989979144,58.321965179052405,953.0
West Bengal,Kolkata,22.550581481481483,88.3527648148148,342,4496694,2356766,2139928,3588137,1926915,1661222,136618,252644,0,1308106,79.79500050481532,81.76098093743714,77.62980810569327,908.0
West Bengal,Maldah,25.08026802575105,88.17191684549356,332,3988845,2051541,1937304,2086432,1152019,934413,5357,63525,830318,128678,52.30667022659442,56.15383752993481,48.23264701874358,944.0
West Bengal,Murshidabad,24.25950655391121,88.16816860465121,333,7103807,3627564,3476243,4055834,2177187,1878647,7951,79729,1501066,350899,57.09380899565543,60.01787976724876,54.042453303753504,958.0
West Bengal,Nadia,23.56410971055088,88.58293034547152,336,5167600,2653768,2513832,3480555,1878866,1601689,12787,77210,1081381,468390,67.35341357690223,70.79993428212262,63.715037440847276,947.0
West Bengal,Puruliya,23.254192328767108,86.3968532876713,340,2930115,1496996,1433119,1624905,1002058,622847,3551,32862,653219,99433,55.455331957960695,66.93792100980897,43.46094078719213,957.0
West Bengal,Uttar Dinajpur,26.044619165196977,88.23595232216337,330,3007134,1551066,1456068,1489667,853495,636172,2883,31210,683981,94269,49.53776585945289,55.02634962019669,43.691091350129255,939.0
